2011-06-12 13:27:14Z - Input Logging Started
$IIDPT,6.59,,*78
$IIGGA,135040.00,4152.08,N,08736.00,W,2,12,0.70,,M,,M,,*6D
$IIGLL,4152.08,N,08736.00,W,135040.00,A,D*6A
$IIHDG,132,,,003,W*33
$IIHDM,132,M*3C
$IIHDT,129,T*36
$IIMTW,30.23,C*21
$IIMWD,357,T,000,M,8.00,N,4.11,M*49
$IIMWV,228,T,8.00,N,A*15
$IIRMB,A,0.31,L,,NOODB,4149.00,N,08731.00,W,4.84,129,6.60,V,D*08
$IIRMC,135040.00,A,4152.08,N,08736.00,W,6.70,135,,003,W,D*11
$IIVHW,129,T,132,M,6.68,N,12.38,K*6F
$IIVLW,2903.17,N,2903.17,N*4D
$IIVTG,135,T,138,M,6.68,N,12.38,K,D*0C
$IIDPT,6.80,,*7C
$IIGGA,135042.00,4152.08,N,08735.99,W,2,12,0.70,,M,,M,,*6C
$IIGLL,4152.08,N,08735.99,W,135042.00,A,D*6B
$IIHDG,132,,,003,W*33
$IIHDM,132,M*3C
$IIHDT,129,T*36
$IIMTW,30.32,C*21
$IIMWD,357,T,000,M,8.00,N,4.11,M*49
$IIMWV,284,R,6.18,N,A*12
$IIRMB,A,0.31,L,,NOODB,4149.00,N,08731.00,W,4.83,129,6.60,V,D*0F
$IIRMC,135044.00,A,4152.07,N,08735.99,W,6.70,135,,003,W,D*19
$IIVHW,128,T,131,M,6.72,N,12.45,K*6C
$IIVLW,2903.17,N,2903.17,N*4D
$IIVTG,135,T,138,M,6.70,N,12.42,K,D*08
$IIDPT,6.90,,*7D
$IIGGA,135046.00,4152.07,N,08735.99,W,2,12,0.70,,M,,M,,*67
$IIGLL,4152.07,N,08735.99,W,135046.00,A,D*60
$IIHDG,131,,,003,W*30
$IIHDM,131,M*3F
$IIHDT,128,T*37
$IIMTW,30.23,C*21
$IIMWD,358,T,001,M,8.30,N,4.26,M*40
$IIMWV,230,T,8.30,N,A*1F
$IIRMB,A,0.31,L,,NOODB,4149.00,N,08731.00,W,4.83,129,6.70,V,D*0E
$IIRMC,135046.00,A,4152.07,N,08735.99,W,6.80,130,,003,W,D*11
$IIVHW,128,T,131,M,6.70,N,12.42,K*69
$IIVLW,2903.18,N,2903.18,N*4D
$IIVTG,130,T,133,M,6.80,N,12.60,K,D*09
$IIDPT,6.90,,*7D
$IIGGA,135048.00,4152.07,N,08735.98,W,2,12,0.70,,M,,M,,*68
$IIGLL,4152.07,N,08735.98,W,135048.00,A,D*6F
$IIHDG,130,,,003,W*31
$IIHDM,130,M*3E
$IIHDT,127,T*38
$IIMTW,30.23,C*21
$IIMWD,357,T,000,M,8.14,N,4.19,M*44
$IIMWV,284,R,6.49,N,A*16
$IIRMB,A,0.31,L,,NOODB,4149.00,N,08731.00,W,4.82,129,6.80,V,D*00
$IIRMC,135050.00,A,4152.06,N,08735.98,W,6.60,127,,003,W,D*1E
$IIVHW,127,T,131,M,6.72,N,12.45,K*63
$IIVLW,2903.19,N,2903.19,N*4D
$IIVTG,127,T,130,M,6.60,N,12.23,K,D*05
$IIDPT,6.80,,*7C
$IIGGA,135052.00,4152.06,N,08735.98,W,2,12,0.80,,M,,M,,*6D
$IIGLL,4152.06,N,08735.98,W,135052.00,A,D*65
$IIHDG,131,,,003,W*30
$IIHDM,131,M*3F
$IIHDT,128,T*37
$IIMTW,30.32,C*21
$IIMWD,358,T,001,M,8.59,N,4.42,M*4D
$IIMWV,230,T,8.59,N,A*10
$IIRMB,A,0.31,L,,NOODB,4149.00,N,08731.00,W,4.82,129,6.70,V,D*0F
$IIRMC,135052.00,A,4152.06,N,08735.98,W,6.60,131,,003,W,D*1B
$IIVHW,128,T,131,M,6.76,N,12.52,K*6E
$IIVLW,2903.19,N,2903.19,N*4D
$IIVTG,131,T,134,M,6.58,N,12.20,K,D*0E
$IIDPT,6.69,,*7B
$IIGGA,135054.00,4152.06,N,08735.97,W,2,12,0.80,,M,,M,,*64
$IIGLL,4152.06,N,08735.97,W,135054.00,A,D*6C
$IIHDG,132,,,003,W*33
$IIHDM,132,M*3C
$IIHDT,129,T*36
$IIMTW,30.32,C*21
$IIMWD,357,T,000,M,7.71,N,3.97,M*49
$IIMWV,289,R,6.27,N,A*13
$IIRMB,A,0.31,L,,NOODB,4149.00,N,08731.00,W,4.81,129,6.70,V,D*0C
$IIRMC,135056.00,A,4152.06,N,08735.97,W,6.90,142,,003,W,D*1B
$IIVHW,129,T,132,M,6.78,N,12.56,K*66
$IIVLW,2903.20,N,2903.20,N*4D
$IIVTG,142,T,145,M,6.90,N,12.77,K,D*0A
$IIDPT,6.80,,*7C
$IIGGA,135058.00,4152.05,N,08735.96,W,2,12,0.70,,M,,M,,*65
$IIGLL,4152.05,N,08735.96,W,135058.00,A,D*62
$IIHDG,132,,,003,W*33
$IIHDM,132,M*3C
$IIHDT,128,T*37
$IIMTW,30.23,C*21
$IIMWD,000,T,003,M,8.20,N,4.21,M*4A
$IIMWV,231,T,8.20,N,A*1F
$IIRMB,A,0.31,L,,NOODB,4149.00,N,08731.00,W,4.80,129,6.90,V,D*03
$IIRMC,135058.00,A,4152.05,N,08735.96,W,6.80,132,,003,W,D*11
$IIVHW,129,T,132,M,6.80,N,12.60,K*64
$IIVLW,2903.20,N,2903.20,N*4D
$IIVTG,132,T,135,M,6.74,N,12.49,K,D*0D
$IIDPT,6.80,,*7C
$IIGGA,135100.00,4152.05,N,08735.96,W,2,12,0.70,,M,,M,,*69
$IIGLL,4152.05,N,08735.96,W,135100.00,A,D*6E
$IIHDG,132,,,003,W*33
$IIHDM,132,M*3C
$IIHDT,129,T*36
$IIMTW,30.23,C*21
$IIMWD,359,T,002,M,8.06,N,4.15,M*47
$IIMWV,285,R,6.53,N,A*1C
$IIRMB,A,0.31,L,,NOODB,4149.00,N,08731.00,W,4.80,129,6.80,V,D*02
$IIRMC,135102.00,A,4152.05,N,08735.96,W,6.90,140,,003,W,D*1B
$IIVHW,129,T,132,M,6.74,N,12.49,K*64
$IIVLW,2903.21,N,2903.21,N*4D
$IIVTG,140,T,143,M,6.90,N,12.77,K,D*0E
$IIDPT,6.69,,*7B
$IIGGA,135104.00,4152.05,N,08735.95,W,2,12,0.70,,M,,M,,*6E
$IIGLL,4152.05,N,08735.95,W,135104.00,A,D*69
$IIHDG,133,,,003,W*32
$IIHDM,133,M*3D
$IIHDT,130,T*3E
$IIMTW,30.32,C*21
$IIMWD,359,T,002,M,8.24,N,4.23,M*42
$IIMWV,229,T,8.24,N,A*12
$IIRMB,A,0.31,L,,NOODB,4149.00,N,08731.00,W,4.79,129,6.70,V,D*0B
$IIRMC,135104.00,A,4152.05,N,08735.95,W,6.80,131,,003,W,D*19
$IIVHW,130,T,133,M,6.84,N,12.67,K*6E
$IIVLW,2903.21,N,2903.21,N*4D
$IIVTG,131,T,134,M,6.80,N,12.60,K,D*0F
$IIDPT,6.80,,*7C
$IIGGA,135106.00,4152.04,N,08735.95,W,2,12,0.70,,M,,M,,*6D
$IIGLL,4152.04,N,08735.95,W,135106.00,A,D*6A
$IIHDG,133,,,003,W*32
$IIHDM,133,M*3D
$IIHDT,130,T*3E
$IIMTW,30.32,C*21
$IIMWD,000,T,003,M,8.16,N,4.19,M*44
$IIMWV,285,R,6.47,N,A*19
$IIRMB,A,0.31,L,,NOODB,4149.00,N,08731.00,W,4.79,129,6.90,V,D*05
$IIRMC,135106.00,A,4152.04,N,08735.95,W,7.01,134,,003,W,D*17
$IIVHW,130,T,133,M,6.84,N,12.67,K*6E
$IIVLW,2903.22,N,2903.22,N*4D
$IIVTG,135,T,138,M,6.80,N,12.60,K,D*07
$IIDPT,6.90,,*7D
$IIGGA,135110.00,4152.04,N,08735.94,W,2,12,0.70,,M,,M,,*6B
$IIGLL,4152.04,N,08735.94,W,135110.00,A,D*6C
$IIHDG,133,,,003,W*32
$IIHDM,133,M*3D
$IIHDT,130,T*3E
$IIMTW,30.32,C*21
$IIMWD,357,T,000,M,8.06,N,4.15,M*4B
$IIMWV,227,T,8.06,N,A*1C
$IIRMB,A,0.31,L,,NOODB,4149.00,N,08731.00,W,4.78,129,6.70,V,D*0A
$IIRMC,135110.00,A,4152.04,N,08735.94,W,6.80,137,,003,W,D*1A
$IIVHW,130,T,133,M,6.86,N,12.70,K*6A
$IIVLW,2903.23,N,2903.23,N*4D
$IIVTG,137,T,140,M,6.80,N,12.60,K,D*0A
$IIDPT,6.69,,*7B
$IIGGA,135112.00,4152.04,N,08735.94,W,2,12,0.80,,M,,M,,*66
$IIGLL,4152.04,N,08735.94,W,135112.00,A,D*6E
$IIHDG,133,,,003,W*32
$IIHDM,133,M*3D
$IIHDT,129,T*36
$IIMTW,30.32,C*21
$IIMWD,354,T,357,M,7.89,N,4.05,M*40
$IIMWV,283,R,5.71,N,A*19
$IIRMB,A,0.31,L,,NOODB,4149.00,N,08731.00,W,4.78,129,6.99,V,D*0D
$IIRMC,135112.00,A,4152.04,N,08735.94,W,7.01,136,,003,W,D*11
$IIVHW,129,T,132,M,6.86,N,12.70,K*63
$IIVLW,2903.23,N,2903.23,N*4D
$IIVTG,135,T,138,M,6.90,N,12.77,K,D*00
$IIDPT,6.19,,*7C
$IIGGA,135116.00,4152.03,N,08735.93,W,2,12,0.80,,M,,M,,*62
$IIGLL,4152.03,N,08735.93,W,135116.00,A,D*6A
$IIHDG,132,,,003,W*33
$IIHDM,132,M*3C
$IIHDT,129,T*36
$IIMTW,30.32,C*21
$IIMWD,355,T,358,M,8.04,N,4.13,M*43
$IIMWV,225,T,7.85,N,A*1A
$IIRMB,A,0.31,L,,NOODB,4149.00,N,08731.00,W,4.77,129,6.90,V,D*0B
$IIRMC,135116.00,A,4152.03,N,08735.93,W,6.90,131,,003,W,D*1B
$IIVHW,129,T,132,M,6.92,N,12.81,K*68
$IIVLW,2903.24,N,2903.24,N*4D
$IIVTG,131,T,134,M,6.86,N,12.70,K,D*08
$IIDPT,6.09,,*7D
$IIGGA,135118.00,4152.03,N,08735.93,W,2,12,0.80,,M,,M,,*6C
$IIGLL,4152.03,N,08735.93,W,135118.00,A,D*64
$IIHDG,131,,,003,W*30
$IIHDM,131,M*3F
$IIHDT,128,T*37
$IIMTW,30.32,C*21
$IIMWD,355,T,358,M,7.89,N,4.05,M*4E
$IIMWV,285,R,5.94,N,A*14
$IIRMB,A,0.31,L,,NOODB,4149.00,N,08731.00,W,4.77,129,6.90,V,D*0B
$IIRMC,135118.00,A,4152.03,N,08735.93,W,6.95,136,,003,W,D*17
$IIVHW,128,T,131,M,6.88,N,12.74,K*6B
$IIVLW,2903.24,N,2903.24,N*4D
$IIVTG,130,T,133,M,6.80,N,12.60,K,D*09
$IIDPT,6.19,,*7C
$IIGGA,135122.00,4152.02,N,08735.92,W,2,12,0.80,,M,,M,,*65
$IIGLL,4152.02,N,08735.92,W,135122.00,A,D*6D
$IIHDG,131,,,003,W*30
$IIHDM,131,M*3F
$IIHDT,128,T*37
$IIMTW,30.32,C*21
$IIMWD,353,T,356,M,7.71,N,3.97,M*4D
$IIMWV,224,T,7.71,N,A*10
$IIRMB,A,0.31,L,,NOODB,4149.00,N,08731.00,W,4.76,129,6.80,V,D*0B
$IIRMC,135122.00,A,4152.02,N,08735.92,W,6.80,133,,003,W,D*1F
$IIVHW,128,T,131,M,6.80,N,12.60,K*66
$IIVLW,2903.25,N,2903.25,N*4D
$IIVTG,133,T,136,M,6.80,N,12.60,K,D*0F
$IIDPT,6.80,,*7C
$IIGGA,135124.00,4152.02,N,08735.92,W,2,12,0.80,,M,,M,,*63
$IIGLL,4152.02,N,08735.92,W,135124.00,A,D*6B
$IIHDG,132,,,003,W*33
$IIHDM,132,M*3C
$IIHDT,129,T*36
$IIMTW,30.23,C*21
$IIMWD,356,T,359,M,7.95,N,4.09,M*4D
$IIMWV,285,R,6.06,N,A*1C
$IIRMB,A,0.31,L,,NOODB,4149.00,N,08731.00,W,4.75,129,6.80,V,D*08
$IIRMC,135124.00,A,4152.02,N,08735.92,W,6.74,129,,003,W,D*19
$IIVHW,129,T,133,M,6.78,N,12.56,K*67
$IIVLW,2903.25,N,2903.25,N*4D
$IIVTG,134,T,137,M,6.60,N,12.23,K,D*00
$IIDPT,6.90,,*7D
$IIGGA,135128.00,4152.01,N,08735.91,W,2,12,0.80,,M,,M,,*6F
$IIGLL,4152.01,N,08735.91,W,135128.00,A,D*67
$IIHDG,133,,,003,W*32
$IIHDM,133,M*3D
$IIHDT,130,T*3E
$IIMTW,30.23,C*21
$IIMWD,353,T,356,M,8.26,N,4.25,M*4E
$IIMWV,223,T,8.26,N,A*1A
$IIRMB,A,0.31,L,,NOODB,4149.00,N,08731.00,W,4.75,129,6.70,V,D*07
$IIRMC,135128.00,A,4152.01,N,08735.91,W,6.70,137,,003,W,D*1E
$IIVHW,130,T,133,M,6.68,N,12.38,K*66
$IIVLW,2903.26,N,2903.26,N*4D
$IIVTG,137,T,140,M,6.70,N,12.42,K,D*05
$IIDPT,6.90,,*7D
$IIGGA,135130.00,4152.01,N,08735.91,W,2,12,0.80,,M,,M,,*66
$IIGLL,4152.01,N,08735.91,W,135130.00,A,D*6E
$IIHDG,133,,,003,W*32
$IIHDM,133,M*3D
$IIHDT,130,T*3E
$IIMTW,30.32,C*21
$IIMWD,350,T,353,M,7.85,N,4.03,M*4A
$IIMWV,278,R,5.17,N,A*1D
$IIRMB,A,0.31,L,,NOODB,4149.00,N,08731.00,W,4.74,129,6.70,V,D*06
$IIRMC,135130.00,A,4152.01,N,08735.91,W,6.64,134,,003,W,D*11
$IIVHW,130,T,133,M,6.64,N,12.31,K*63
$IIVLW,2903.26,N,2903.26,N*4D
$IIVTG,140,T,143,M,6.70,N,12.42,K,D*06
$IIDPT,7.09,,*7C
$IIGGA,135134.00,4152.01,N,08735.90,W,2,12,0.80,,M,,M,,*63
$IIGLL,4152.01,N,08735.90,W,135134.00,A,D*6B
$IIHDG,134,,,003,W*35
$IIHDM,134,M*3A
$IIHDT,131,T*3F
$IIMTW,30.32,C*21
$IIMWD,352,T,355,M,8.26,N,4.25,M*4C
$IIMWV,220,T,8.20,N,A*1F
$IIRMB,A,0.31,L,,NOODB,4149.00,N,08731.00,W,4.74,129,6.70,V,D*06
$IIRMC,135134.00,A,4152.01,N,08735.90,W,6.60,131,,003,W,D*15
$IIVHW,131,T,134,M,6.66,N,12.34,K*62
$IIVLW,2903.27,N,2903.27,N*4D
$IIVTG,131,T,134,M,6.60,N,12.23,K,D*06
$IIDPT,7.09,,*7C
$IIGGA,135136.00,4152.00,N,08735.90,W,2,12,0.80,,M,,M,,*60
$IIGLL,4152.00,N,08735.90,W,135136.00,A,D*68
$IIHDG,134,,,003,W*35
$IIHDM,134,M*3A
$IIHDT,131,T*3F
$IIMTW,30.32,C*21
$IIMWD,350,T,353,M,7.95,N,4.09,M*41
$IIMWV,276,R,5.15,N,A*11
$IIRMB,A,0.31,L,,NOODB,4149.00,N,08731.00,W,4.73,129,6.60,V,D*00
$IIRMC,135136.00,A,4152.00,N,08735.90,W,6.53,137,,003,W,D*10
$IIVHW,131,T,134,M,6.68,N,12.38,K*60
$IIVLW,2903.28,N,2903.28,N*4D
$IIVTG,137,T,140,M,6.80,N,12.60,K,D*0A
$IIDPT,7.00,,*75
$IIGGA,135140.00,4152.00,N,08735.89,W,2,12,0.80,,M,,M,,*69
$IIGLL,4152.00,N,08735.89,W,135140.00,A,D*61
$IIHDG,134,,,003,W*35
$IIHDM,134,M*3A
$IIHDT,131,T*3F
$IIMTW,30.23,C*21
$IIMWD,351,T,354,M,8.16,N,4.19,M*42
$IIMWV,220,T,8.16,N,A*1A
$IIRMB,A,0.31,L,,NOODB,4149.00,N,08731.00,W,4.73,129,6.80,V,D*0E
$IIRMC,135140.00,A,4152.00,N,08735.89,W,6.90,140,,003,W,D*16
$IIVHW,131,T,134,M,6.74,N,12.49,K*6B
$IIVLW,2903.28,N,2903.28,N*4D
$IIVTG,140,T,143,M,6.90,N,12.77,K,D*0E
$IIDPT,7.00,,*75
$IIGGA,135142.00,4152.00,N,08735.89,W,2,12,0.80,,M,,M,,*6B
$IIGLL,4152.00,N,08735.89,W,135142.00,A,D*63
$IIHDG,134,,,003,W*35
$IIHDM,134,M*3A
$IIHDT,131,T*3F
$IIMTW,30.23,C*21
$IIMWD,350,T,353,M,8.22,N,4.23,M*4A
$IIMWV,275,R,5.22,N,A*16
$IIRMB,A,0.31,L,,NOODB,4149.00,N,08731.00,W,4.72,129,6.70,V,D*00
$IIRMC,135142.00,A,4152.00,N,08735.89,W,6.86,137,,003,W,D*13
$IIVHW,131,T,134,M,6.80,N,12.60,K*6B
$IIVLW,2903.29,N,2903.29,N*4D
$IIVTG,141,T,144,M,6.99,N,12.96,K,D*0E
$IIDPT,7.00,,*75
$IIGGA,135146.00,415±.99,N,08735.88,W,2,12,0.80,,M,,M,,*6D
$IIGLL,4151.99,N,08735.88,W,135146.00,A,D*65
$IIHDG,134,,,003,W*35
$IIHDM,134,M*3A
$IIHDT,131,T*3F
$IIMTW,30.23,C*21
$IIMWD,354,T,358,M,7.96,N,4.09,M*4D
$IIMWV,223,T,7.96,N,A*1E
$IIRMB,A,0.31,L,,NOODB,4149.00,N,08731.00,W,4.71,129,6.90,V,D*0D
$IIRMC,135146.00,A,4151.99,N,08735.88,W,6.99,134,,003,W,D*18
$IIVHW,131,T,134,M,6.84,N,12.67,K*68
$IIVLW,2903.29,N,2903.29,N*4D
$IIVTG,134,T,137,M,6.99,N,12.96,K,D*08
$IIDPT,7.09,,*7C
$IIGGA,135148.00,4151.99,N,08735.88,W,2,12,0.80,,M,,M,,*63
$IIGLL,4151.99,N,08735.88,W,135148.00,A,D*6B
$IIHDG,133,,,003,W*32
$IIHDM,133,M*3D
$IIHDT,130,T*3E
$IIMTW,30.23,C*21
$IIMWD,356,T,000,M,8.33,N,4.28,M*42
$IIMWV,281,R,6.20,N,A*1C
$IIRMB,A,0.31,L,,NOODB,4149.00,N,08731.00,W,4.71,129,6.80,V,D*0C
$IIRMC,135148.00,A,4151.99,N,08735.88,W,6.92,139,,003,W,D*10
$IIVHW,130,T,133,M,6.84,N,12.67,K*6E
$IIVLW,2903.30,N,2903.30,N*4D
$IIVTG,134,T,137,M,6.90,N,12.77,K,D*0E
$IIDPT,7.00,,*75
$IIGGA,135152.00,4151.98,N,08735.87,W,2,12,0.80,,M,,M,,*66
$IIGLL,4151.98,N,08735.87,W,135152.00,A,D*6E
$IIHDG,133,,,003,W*32
$IIHDM,133,M*3D
$IIHDT,130,T*3E
$IIMTW,30.23,C*21
$IIMWD,353,T,357,M,8.37,N,4.30,M*4B
$IIMWV,223,T,8.37,N,A*1A
$IIRMB,A,0.31,L,,NOODB,4149.00,N,08731.00,W,4.70,129,6.90,V,D*0C
$IIRMC,135152.00,A,4151.98,N,08735.87,W,6.90,133,,003,W,D*1D
$IIVHW,130,T,133,M,6.80,N,12.60,K*6D
$IIVLW,2903.30,N,2903.30,N*4D
$IIVTG,133,T,136,M,6.90,N,12.77,K,D*08
$IIDPT,6.90,,*7D
$IIGGA,135154.00,4151.98,N,08735.86,W,2,12,0.80,,M,,M,,*61
$IIGLL,4151.98,N,08735.86,W,135154.00,A,D*69
$IIHDG,133,,,003,W*32
$IIHDM,133,M*3D
$IIHDT,130,T*3E
$IIMTW,30.68,C*2E
$IIMWD,354,T,357,M,8.10,N,4.17,M*4C
$IIMWV,281,R,5.88,N,A*1D
$IIRMB,A,0.31,L,,NOODB,4149.00,N,08731.00,W,4.70,129,6.90,V,D*0C
$IIRMC,135154.00,A,4151.98,N,08735.86,W,6.68,136,,003,W,D*18
$IIVHW,129,T,132,M,6.78,N,12.56,K*66
$IIVLW,2903.31,N,2903.31,N*4D
$IIVTG,136,T,139,M,6.68,N,12.38,K,D*0E
$IIDPT,7.09,,*7C
$IIGGA,135158.00,4151.97,N,08735.86,W,2,12,0.80,,M,,M,,*62
$IIGLL,4151.97,N,08735.86,W,135158.00,A,D*6A
$IIHDG,131,,,003,W*30
$IIHDM,131,M*3F
$IIHDT,128,T*37
$IIMTW,30.68,C*2E
$IIMWD,353,T,356,M,8.65,N,4.44,M*4E
$IIMWV,225,T,8.78,N,A*17
$IIRMB,A,0.31,L,,NOODB,4149.00,N,08731.00,W,4.69,129,6.80,V,D*05
$IIRMC,135158.00,A,4151.97,N,08735.86,W,6.80,134,,003,W,D*1F
$IIVHW,128,T,131,M,6.80,N,12.60,K*66
$IIVLW,2903.32,N,2903.32,N*4D
$IIVTG,134,T,137,M,6.80,N,12.60,K,D*09
$IIDPT,7.09,,*7C
$IIGGA,135200.00,4151.97,N,08735.85,W,2,12,0.80,,M,,M,,*6F
$IIGLL,4151.97,N,08735.85,W,135200.00,A,D*67
$IIHDG,130,,,003,W*31
$IIHDM,130,M*3E
$IIHDT,127,T*38
$IIMTW,30.23,C*21
$IIMWD,354,T,357,M,8.39,N,4.32,M*40
$IIMWV,282,R,6.43,N,A*1A
$IIRMB,A,0.31,L,,NOODB,4149.00,N,08731.00,W,4.69,129,6.99,V,D*0D
$IIRMC,135200.00,A,4151.97,N,08735.85,W,6.92,133,,003,W,D*16
$IIVHW,127,T,130,M,6.76,N,12.52,K*60
$IIVLW,2903.32,N,2903.32,N*4D
$IIVTG,133,T,136,M,6.92,N,12.81,K,D*03
$IIDPT,7.00,,*75
$IIGGA,135204.00,4151.97,N,08735.85,W,2,11,0.80,,M,,M,,*68
$IIGLL,4151.97,N,08735.85,W,135204.00,A,D*63
$IIHDG,130,,,003,W*31
$IIHDM,130,M*3E
$IIHDT,126,T*39
$IIMTW,30.23,C*21
$IIMWD,355,T,358,M,8.31,N,4.28,M*4D
$IIMWV,228,T,8.31,N,A*17
$IIRMB,A,0.31,L,,NOODB,4149.00,N,08731.00,W,4.68,129,6.80,V,D*04
$IIRMC,135204.00,A,4151.97,N,08735.85,W,6.80,128,,003,W,D*1B
$IIVHW,126,T,129,M,6.80,N,12.60,K*61
$IIVLW,2903.33,N,2903.33,N*4D
$IIVTG,128,T,131,M,6.80,N,12.60,K,D*02
$IIDPT,7.00,,*75
$IIGGA,135206.00,4151.96,N,08735.84,W,2,12,0.80,,M,,M,,*69
$IIGLL,4151.96,N,08735.84,W,135206.00,A,D*61
$IIHDG,129,,,003,W*39
$IIHDM,129,M*36
$IIHDT,126,T*39
$IIMTW,30.23,C*21
$IIMWD,356,T,359,M,8.28,N,4.26,M*49
$IIMWV,284,R,6.62,N,A*1F
$IIRMB,A,0.31,L,,NOODB,4149.00,N,08731.00,W,4.68,129,6.80,V,D*04
$IIRMC,135206.00,A,4151.96,N,08735.84,W,7.01,133,,003,W,D*1B
$IIVHW,126,T,129,M,6.86,N,12.70,K*66
$IIVLW,2903.33,N,2903.33,N*4D
$IIVTG,133,T,136,M,7.01,N,12.99,K,D*01
$IIDPT,7.00,,*75
$IIGGA,135208.00,4151.96,N,08735.84,W,2,12,0.80,,M,,M,,*67
$IIGLL,4151.96,N,08735.83,W,135210.00,A,D*61
$IIHDG,130,,,003,W*31
$IIHDM,130,M*3E
$IIHDT,127,T*38
$IIMTW,30.23,C*21
$IIMWD,356,T,000,M,8.53,N,4.38,M*45
$IIMWV,229,T,8.53,N,A*12
$IIRMB,A,0.31,L,,NOODB,4149.00,N,08731.00,W,4.67,129,6.80,V,D*0B
$IIRMC,135210.00,A,4151.96,N,08735.83,W,6.80,129,,003,W,D*18
$IIVHW,127,T,130,M,6.84,N,12.67,K*6B
$IIVLW,2903.34,N,2903.34,N*4D
$IIVTG,129,T,132,M,6.80,N,12.60,K,D*00
$IIDPT,7.00,,*75
$IIGGA,135212.00,4151.96,N,08735.83,W,2,12,0.80,,M,,M,,*6B
$IIGLL,4151.96,N,08735.83,W,135212.00,A,D*63
$IIHDG,131,,,003,W*30
$IIHDM,131,M*3F
$IIHDT,128,T*37
$IIMTW,30.23,C*21
$IIMWD,355,T,358,M,8.24,N,4.23,M*42
$IIMWV,283,R,6.33,N,A*1C
$IIRMB,A,0.31,L,,NOODB,4149.00,N,08731.00,W,4.67,129,6.70,V,D*04
$IIRMC,135212.00,A,4151.96,N,08735.83,W,6.64,133,,003,W,D*1B
$IIVHW,128,T,131,M,6.80,N,12.60,K*66
$IIVLW,2903.34,N,2903.34,N*4D
$IIVTG,133,T,136,M,6.64,N,12.31,K,D*01
$IIDPT,7.19,,*7D
$IIGGA,135214.00,4151.95,N,08735.83,W,2,12,0.80,,M,,M,,*6E
$IIGLL,4151.95,N,08735.82,W,135216.00,A,D*65
$IIHDG,130,,,003,W*31
$IIHDM,130,M*3E
$IIHDT,127,T*38
$IIMTW,30.23,C*21
$IIMWD,354,T,357,M,8.14,N,4.19,M*46
$IIMWV,227,T,8.14,N,A*1F
$IIRMB,A,0.31,L,,NOODB,4149.00,N,08731.00,W,4.66,129,6.80,V,D*0A
$IIRMC,135216.00,A,4151.95,N,08735.82,W,6.90,134,,003,W,D*11
$IIVHW,127,T,130,M,6.78,N,12.56,K*6A
$IIVLW,2903.35,N,2903.35,N*4D
$IIVTG,134,T,137,M,6.90,N,12.77,K,D*0E
$IIDPT,7.00,,*75
$IIGGA,135218.00,4151.95,N,08735.82,W,2,12,0.80,,M,,M,,*63
$IIGLL,4151.95,N,08735.82,W,135218.00,A,D*6B
$IIHDG,129,,,003,W*39
$IIHDM,129,M*36
$IIHDT,126,T*39
$IIMTW,30.23,C*21
$IIMWD,352,T,355,M,7.93,N,4.07,M*4D
$IIMWV,283,R,5.88,N,A*1F
$IIRMB,A,0.31,L,,NOODB,4149.00,N,08731.00,W,4.65,129,6.90,V,D*08
$IIRMC,135218.00,A,4151.95,N,08735.82,W,6.86,133,,003,W,D*1F
$IIVHW,126,T,129,M,6.80,N,12.60,K*61
$IIVLW,2903.36,N,2903.36,N*4D
$IIVTG,133,T,136,M,6.86,N,12.70,K,D*08
$IIDPT,7.09,,*7C
$IIGGA,135220.00,4151.95,N,08735.82,W,2,12,0.80,,M,,M,,*68
$IIGLL,4151.94,N,08735.81,W,135222.00,A,D*60
$IIHDG,129,,,003,W*39
$IIHDM,129,M*36
$IIHDT,126,T*39
$IIMTW,30.32,C*21
$IIMWD,353,T,356,M,8.16,N,4.19,M*42
$IIMWV,227,T,8.16,N,A*1D
$IIRMB,A,0.31,L,,NOODB,4149.00,N,08731.00,W,4.65,129,6.80,V,D*09
$IIRMC,135222.00,A,4151.94,N,08735.81,W,6.90,132,,003,W,D*12
$IIVHW,126,T,129,M,6.80,N,12.60,K*61
$IIVLW,2903.36,N,2903.36,N*4D
$IIVTG,132,T,135,M,6.90,N,12.77,K,D*0A
$IIDPT,7.09,,*7C
$IIGGA,135224.00,4151.94,N,08735.81,W,2,12,0.80,,M,,M,,*6E
$IIGLL,4151.94,N,08735.81,W,135224.00,A,D*66
$IIHDG,129,,,003,W*39
$IIHDM,129,M*36
$IIHDT,126,T*39
$IIMTW,30.32,C*21
$IIMWD,352,T,355,M,7.52,N,3.86,M*4E
$IIMWV,289,R,6.10,N,A*17
$IIRMB,A,0.31,L,,NOODB,4149.00,N,08731.00,W,4.64,129,6.80,V,D*08
$IIRMC,135224.00,A,4151.94,N,08735.81,W,6.80,127,,003,W,D*11
$IIVHW,126,T,129,M,6.78,N,12.56,K*63
$IIVLW,2903.37,N,2903.37,N*4D
$IIVTG,127,T,130,M,6.80,N,12.60,K,D*0C
$IIDPT,7.09,,*7C
$IIGGA,135226.00,4151.94,N,08735.80,W,2,12,0.80,,M,,M,,*6D
$IIGLL,4151.94,N,08735.80,W,135226.00,A,D*65
$IIHDG,130,,,003,W*31
$IIHDM,130,M*3E
$IIHDT,127,T*38
$IIMTW,30.32,C*21
$IIMWD,358,T,001,M,7.54,N,3.88,M*4E
$IIMWV,230,T,7.54,N,A*12
$IIRMB,A,0.31,L,,NOODB,4149.00,N,08731.00,W,4.63,129,6.80,V,D*0F
$IIRMC,135228.00,A,4151.94,N,08735.80,W,6.60,124,,003,W,D*11
$IIVHW,127,T,130,M,6.76,N,12.52,K*60
$IIVLW,2903.37,N,2903.37,N*4D
$IIVTG,124,T,127,M,6.60,N,12.23,K,D*00
$IIDPT,7.00,,*75
$IIGGA,135230.00,4151.93,N,08735.80,W,2,12,0.80,,M,,M,,*6D
$IIGLL,4151.93,N,08735.80,W,135230.00,A,D*65
$IIHDG,130,,,003,W*31
$IIHDM,130,M*3E
$IIHDT,127,T*38
$IIMTW,30.32,C*21
$IIMWD,357,T,000,M,7.60,N,3.91,M*4F
$IIMWV,290,R,6.43,N,A*19
$IIRMB,A,0.31,L,,NOODB,4149.00,N,08731.00,W,4.63,129,6.49,V,D*0A
$IIRMC,135230.00,A,4151.93,N,08735.80,W,6.86,138,,003,W,D*1A
$IIVHW,127,T,130,M,6.76,N,12.52,K*60
$IIVLW,2903.38,N,2903.38,N*4D
$IIVTG,138,T,141,M,6.86,N,12.70,K,D*03
$IIDPT,7.00,,*75
$IIGGA,135232.00,4151.93,N,08735.79,W,2,12,0.80,,M,,M,,*69
$IIGLL,4151.93,N,08735.79,W,135232.00,A,D*61
$IIHDG,129,,,003,W*39
$IIHDM,129,M*36
$IIHDT,126,T*39
$IIMTW,30.23,C*21
$IIMWD,355,T,358,M,7.56,N,3.89,M*4F
$IIMWV,228,T,7.56,N,A*19
$IIRMB,A,0.31,L,,NOODB,4149.00,N,08731.00,W,4.62,129,6.80,V,D*0E
$IIRMC,135234.00,A,4151.93,N,08735.79,W,6.90,132,,003,W,D*15
$IIVHW,125,T,128,M,6.76,N,12.52,K*6B
$IIVLW,2903.38,N,2903.38,N*4D
$IIVTG,132,T,135,M,6.90,N,12.77,K,D*0A
$IIDPT,7.09,,*7C
$IIGGA,135236.00,4151.93,N,08735.79,W,2,12,0.80,,M,,M,,*6D
$IIGLL,4151.93,N,08735.79,W,135236.00,A,D*65
$IIHDG,127,,,003,W*37
$IIHDM,127,M*38
$IIHDT,124,T*3B
$IIMTW,30.32,C*21
$IIMWD,353,T,356,M,7.71,N,3.97,M*4D
$IIMWV,288,R,6.22,N,A*17
$IIRMB,A,0.31,L,,NOODB,4149.00,N,08731.00,W,4.62,129,6.80,V,D*0E
$IIRMC,135236.00,A,4151.93,N,08735.79,W,6.95,131,,003,W,D*11
$IIVHW,124,T,127,M,6.82,N,12.63,K*6C
$IIVLW,2903.39,N,2903.39,N*4D
$IIVTG,131,T,134,M,6.95,N,12.88,K,D*0D
$IIDPT,7.09,,*7C
$IIGGA,135238.00,4151.92,N,08735.78,W,2,12,0.80,,M,,M,,*63
$IIGLL,4151.92,N,08735.78,W,135238.00,A,D*6B
$IIHDG,127,,,003,W*37
$IIHDM,127,M*38
$IIHDT,124,T*3B
$IIMTW,30.32,C*21
$IIMWD,354,T,357,M,7.77,N,4.00,M*44
$IIMWV,229,T,7.77,N,A*1B
$IIRMB,A,0.31,L,,NOODB,4149.00,N,08731.00,W,4.61,129,6.99,V,D*05
$IIRMC,135240.00,A,4151.92,N,08735.78,W,6.80,125,,003,W,D*11
$IIVHW,124,T,127,M,6.82,N,12.63,K*6C
$IIVLW,2903.40,N,2903.40,N*4D
$IIVTG,125,T,128,M,6.80,N,12.60,K,D*07
$IIDPT,7.19,,*7D
$IIGGA,135242.00,4151.92,N,08735.77,W,2,12,0.80,,M,,M,,*61
$IIGLL,4151.92,N,08735.77,W,135242.00,A,D*69
$IIHDG,127,,,003,W*37
$IIHDM,127,M*38
$IIHDT,124,T*3B
$IIMTW,30.32,C*21
$IIMWD,358,T,001,M,8.26,N,4.25,M*44
$IIMWV,288,R,7.09,N,A*1F
$IIRMB,A,0.31,L,,NOODB,4149.00,N,08731.00,W,4.61,129,6.99,V,D*05
$IIRMC,135242.00,A,4151.92,N,08735.77,W,6.92,128,,003,W,D*12
$IIVHW,124,T,127,M,6.80,N,12.60,K*6D
$IIVLW,2903.40,N,2903.40,N*4D
$IIVTG,128,T,131,M,6.92,N,12.81,K,D*0E
$IIDPT,6.90,,*7D
$IIGGA,135244.00,4151.92,N,08735.77,W,2,12,0.80,,M,,M,,*67
$IIGLL,4151.92,N,08735.77,W,135244.00,A,D*6F
$IIHDG,128,,,003,W*38
$IIHDM,128,M*37
$IIHDT,125,T*3A
$IIMTW,30.32,C*21
$IIMWD,357,T,000,M,8.28,N,4.26,M*47
$IIMWV,232,T,8.28,N,A*14
$IIRMB,A,0.31,L,,NOODB,4149.00,N,08731.00,W,4.60,129,6.60,V,D*02
$IIRMC,135246.00,A,4151.91,N,08735.76,W,6.80,132,,003,W,D*1C
$IIVHW,124,T,127,M,6.86,N,12.70,K*6A
$IIVLW,2903.41,N,2903.41,N*4D
$IIVTG,132,T,135,M,6.80,N,12.60,K,D*0D
$IIDPT,7.00,,*75
$IIGGA,135248.00,4151.91,N,08735.76,W,2,12,0.80,,M,,M,,*69
$IIGLL,4151.91,N,08735.76,W,135248.00,A,D*61
$IIHDG,128,,,003,W*38
$IIHDM,128,M*37
$IIHDT,125,T*3A
$IIMTW,30.50,C*25
$IIMWD,356,T,000,M,8.18,N,4.21,M*42
$IIMWV,287,R,6.72,N,A*1D
$IIRMB,A,0.31,L,,NOODB,4149.00,N,08731.00,W,4.60,129,6.90,V,D*0D
$IIRMC,135248.00,A,4151.91,N,08735.76,W,7.17,131,,003,W,D*1E
$IIVHW,125,T,128,M,6.95,N,12.88,K*61
$IIVLW,2903.41,N,2903.41,N*4D
$IIVTG,131,T,134,M,7.17,N,13.28,K,D*0D
$IIDPT,7.00,,*75
$IIGGA,135250.00,4151.91,N,08735.76,W,2,12,0.80,,M,,M,,*60
$IIGLL,4151.91,N,08735.76,W,135250.00,A,D*68
$IIHDG,129,,,003,W*39
$IIHDM,129,M*36
$IIHDT,126,T*39
$IIMTW,30.50,C*25
$IIMWD,356,T,000,M,8.51,N,4.38,M*47
$IIMWV,230,T,8.51,N,A*18
$IIRMB,A,0.31,L,,NOODB,4149.00,N,08731.00,W,4.59,129,6.99,V,D*0E
$IIRMC,135252.00,A,4151.91,N,08735.75,W,6.99,129,,003,W,D*18
$IIVHW,126,T,129,M,6.93,N,12.85,K*68
$IIVLW,2903.42,N,2903.42,N*4D
$IIVTG,129,T,132,M,6.99,N,12.96,K,D*01
$IIDPT,7.00,,*75
$IIGGA,135254.00,4151.90,N,08735.75,W,2,12,0.80,,M,,M,,*66
$IIGLL,4151.90,N,08735.75,W,135254.00,A,D*6E
$IIHDG,130,,,003,W*31
$IIHDM,130,M*3E
$IIHDT,127,T*38
$IIMTW,30.23,C*21
$IIMWD,354,T,357,M,8.37,N,4.30,M*4C
$IIMWV,281,R,6.31,N,A*1C
$IIRMB,A,0.31,L,,NOODB,4149.00,N,08731.00,W,4.58,129,6.99,V,D*0F
$IIRMC,135254.00,A,4151.90,N,08735.75,W,6.80,132,,003,W,D*1D
$IIVHW,127,T,131,M,6.84,N,12.67,K*6A
$IIVLW,2903.42,N,2903.42,N*4D
$IIVTG,132,T,135,M,6.80,N,12.60,K,D*0D
$IIDPT,7.00,,*75
$IIGGA,135256.00,4151.90,N,08735.75,W,2,12,0.80,,M,,M,,*64
$IIGLL,4151.90,N,08735.75,W,135256.00,A,D*6C
$IIHDG,131,,,003,W*30
$IIHDM,131,M*3F
$IIHDT,128,T*37
$IIMTW,30.23,C*21
$IIMWD,356,T,359,M,8.65,N,4.44,M*44
$IIMWV,227,T,8.65,N,A*19
$IIRMB,A,0.31,L,,NOODB,4149.00,N,08731.00,W,4.58,129,6.60,V,D*09
$IIRMC,135258.00,A,4151.90,N,08735.74,W,6.60,135,,003,W,D*19
$IIVHW,128,T,131,M,6.84,N,12.67,K*65
$IIVLW,2903.43,N,2903.43,N*4D
$IIVTG,135,T,138,M,6.60,N,12.23,K,D*0E
$IIDPT,7.00,,*75
$IIGGA,135300.00,4151.90,N,08735.74,W,2,12,0.80,,M,,M,,*67
$IIGLL,4151.90,N,08735.74,W,135300.00,A,D*6F
$IIHDG,130,,,003,W*31
$IIHDM,130,M*3E
$IIHDT,127,T*38
$IIMTW,30.23,C*21
$IIMWD,355,T,359,M,8.80,N,4.53,M*4A
$IIMWV,279,R,6.68,N,A*17
$IIRMB,A,0.31,L,,NOODB,4149.00,N,08731.00,W,4.57,129,6.80,V,D*08
$IIRMC,135300.00,A,4151.90,N,08735.74,W,7.01,136,,003,W,D*10
$IIVHW,127,T,130,M,6.84,N,12.67,K*6B
$IIVLW,2903.43,N,2903.43,N*4D
$IIVTG,136,T,139,M,7.01,N,12.99,K,D*0B
$IIDPT,7.00,,*75
$IIGGA,135302.00,4151.89,N,08735.74,W,2,12,0.80,,M,,M,,*6D
$IIGLL,4151.89,N,08735.74,W,135302.00,A,D*65
$IIHDG,130,,,003,W*31
$IIHDM,130,M*3E
$IIHDT,127,T*38
$IIMTW,30.23,C*21
$IIMWD,353,T,356,M,8.65,N,4.44,M*4E
$IIMWV,226,T,8.65,N,A*18
$IIRMB,A,0.31,L,,NOODB,4149.00,N,08731.00,W,4.57,129,6.90,V,D*09
$IIRMC,135304.00,A,4151.89,N,08735.73,W,6.80,134,,003,W,D*11
$IIVHW,126,T,129,M,6.90,N,12.77,K*66
$IIVLW,2903.44,N,2903.44,N*4D
$IIVTG,134,T,137,M,6.80,N,12.60,K,D*09
$IIDPT,6.90,,*7D
$IIGGA,135306.00,4151.89,N,08735.73,W,2,12,0.80,,M,,M,,*6E
$IIGLL,4151.89,N,08735.73,W,135306.00,A,D*66
$IIHDG,130,,,003,W*31
$IIHDM,130,M*3E
$IIHDT,126,T*39
$IIMTW,30.23,C*21
$IIMWD,353,T,356,M,8.53,N,4.38,M*40
$IIMWV,280,R,6.27,N,A*1A
$IIRMB,A,0.31,L,,NOODB,4149.00,N,08731.00,W,4.56,129,6.90,V,D*08
$IIRMC,135306.00,A,4151.89,N,08735.73,W,7.01,129,,003,W,D*17
$IIVHW,127,T,130,M,6.95,N,12.88,K*6A
$IIVLW,2903.45,N,2903.45,N*4D
$IIVTG,129,T,132,M,7.01,N,12.99,K,D*0E
$IIDPT,7.09,,*7C
$IIGGA,135308.00,4151.89,N,08735.72,W,2,12,0.80,,M,,M,,*61
$IIGLL,4151.89,N,08735.72,W,135308.00,A,D*69
$IIHDG,131,,,003,W*30
$IIHDM,131,M*3F
$IIHDT,128,T*37
$IIMTW,30.50,C*25
$IIMWD,357,T,000,M,9.01,N,4.63,M*4C
$IIMWV,229,T,9.01,N,A*14
$IIRMB,A,0.31,L,,NOODB,4149.00,N,08731.00,W,4.55,129,6.80,V,D*0A
$IIRMC,135310.00,A,4151.88,N,08735.72,W,6.60,131,,003,W,D*1F
$IIVHW,129,T,132,M,6.80,N,12.60,K*64
$IIVLW,2903.45,N,2903.45,N*4D
$IIVTG,131,T,134,M,6.60,N,12.23,K,D*06
$IIDPT,6.90,,*7D
$IIGGA,135312.00,4151.88,N,08735.72,W,2,12,0.80,,M,,M,,*6B
$IIGLL,4151.88,N,08735.72,W,135312.00,A,D*63
$IIHDG,132,,,003,W*33
$IIHDM,132,M*3C
$IIHDT,129,T*36
$IIMTW,30.50,C*25
$IIMWD,354,T,357,M,8.61,N,4.42,M*4A
$IIMWV,279,R,6.31,N,A*1B
$IIRMB,A,0.31,L,,NOODB,4149.00,N,08731.00,W,4.55,129,6.39,V,D*08
$IIRMC,135312.00,A,4151.88,N,08735.72,W,6.68,141,,003,W,D*12
$IIVHW,129,T,132,M,6.74,N,12.49,K*64
$IIVLW,2903.46,N,2903.46,N*4D
$IIVTG,141,T,145,M,6.68,N,12.38,K,D*05
$IIDPT,6.90,,*7D
$IIGGA,135314.00,4151.88,N,08735.71,W,2,12,0.80,,M,,M,,*6E
$IIGLL,4151.88,N,08735.71,W,135314.00,A,D*66
$IIHDG,132,,,003,W*33
$IIHDM,132,M*3C
$IIHDT,129,T*36
$IIMTW,30.23,C*21
$IIMWD,355,T,358,M,7.85,N,4.03,M*44
$IIMWV,226,T,7.85,N,A*19
$IIRMB,A,0.31,L,,NOODB,4149.00,N,08731.00,W,4.54,129,6.49,V,D*0E
$IIRMC,135316.00,A,4151.88,N,08735.71,W,6.39,134,,003,W,D*13
$IIVHW,128,T,131,M,6.76,N,12.52,K*6E
$IIVLW,2903.46,N,2903.46,N*4D
$IIVTG,134,T,137,M,6.39,N,11.84,K,D*02
$IIDPT,7.00,,*75
$IIGGA,135318.00,4151.87,N,08735.71,W,2,12,0.80,,M,,M,,*6D
$IIGLL,4151.87,N,08735.71,W,135318.00,A,D*65
$IIHDG,129,,,003,W*39
$IIHDM,129,M*36
$IIHDT,126,T*39
$IIMTW,30.23,C*21
$IIMWD,352,T,355,M,7.93,N,4.07,M*4D
$IIMWV,290,R,6.39,N,A*14
$IIRMB,A,0.31,L,,NOODB,4149.00,N,08731.00,W,4.54,129,6.39,V,D*09
$IIRMC,135318.00,A,4151.87,N,08735.71,W,7.07,139,,003,W,D*13
$IIVHW,126,T,129,M,6.88,N,12.74,K*6C
$IIVLW,2903.47,N,2903.47,N*4D
$IIVTG,139,T,142,M,7.07,N,13.10,K,D*0E
$IIDPT,6.90,,*7D
$IIGGA,135320.00,4151.87,N,08735.70,W,2,12,0.80,,M,,M,,*67
$IIGLL,4151.87,N,08735.70,W,135320.00,A,D*6F
$IIHDG,129,,,003,W*39
$IIHDM,129,M*36
$IIHDT,126,T*39
$IIMTW,30.32,C*21
$IIMWD,355,T,358,M,8.16,N,4.19,M*4A
$IIMWV,228,T,8.16,N,A*12
$IIRMB,A,0.31,L,,NOODB,4149.00,N,08731.00,W,4.53,129,6.70,V,D*03
$IIRMC,135322.00,A,4151.87,N,08735.70,W,6.80,126,,003,W,D*1B
$IIVHW,126,T,129,M,6.78,N,12.56,K*63
$IIVLW,2903.47,N,2903.47,N*4D
$IIVTG,126,T,129,M,6.80,N,12.60,K,D*05
$IIDPT,7.19,,*7D
$IIGGA,135324.00,4151.87,N,08735.69,W,2,12,0.80,,M,,M,,*6B
$IIGLL,4151.87,N,08735.69,W,135324.00,A,D*63
$IIHDG,129,,,003,W*39
$IIHDM,129,M*36
$IIHDT,126,T*39
$IIMTW,30.42,C*26
$IIMWD,354,T,357,M,8.53,N,4.38,M*46
$IIMWV,282,R,6.70,N,A*1A
$IIRMB,A,0.31,L,,NOODB,4149.00,N,08731.00,W,4.53,129,6.60,V,D*02
$IIRMC,135324.00,A,4151.87,N,08735.69,W,6.68,133,,003,W,D*17
$IIVHW,126,T,129,M,6.68,N,12.38,K*6A
$IIVLW,2903.48,N,2903.48,N*4D
$IIVTG,133,T,136,M,6.68,N,12.38,K,D*04
$IIDPT,7.19,,*7D
$IIGGA,135326.00,4151.86,N,08735.69,W,2,12,0.80,,M,,M,,*68
$IIGLL,4151.86,N,08735.69,W,135326.00,A,D*60
$IIHDG,129,,,003,W*39
$IIHDM,129,M*36
$IIHDT,126,T*39
$IIMTW,30.42,C*26
$IIMWD,351,T,354,M,8.18,N,4.21,M*47
$IIMWV,224,T,8.18,N,A*10
$IIRMB,A,0.31,L,,NOODB,4149.00,N,08731.00,W,4.52,129,6.60,V,D*03
$IIRMC,135328.00,A,4151.86,N,08735.69,W,6.90,141,,003,W,D*18
$IIVHW,126,T,129,M,6.66,N,12.34,K*68
$IIVLW,2903.49,N,2903.49,N*4D
$IIVTG,141,T,144,M,6.90,N,12.77,K,D*08
$IIDPT,7.30,,*76,4151.86,N,08735$IIDPT,7.09,,*7C
$IIGGA,135332.00,4151.86,N,08735.68,W,2,12,0.80,,M,,M,,*6C
$IIGLL,4151.86,N,08735.68,W,135332.00,A,D*64
$IIHDG,129,,,003,W*39
$IIHDM,129,M*36
$IIHDT,126,T*39
$IIMTW,30.32,C*21
$IIMWD,350,T,353,M,8.70,N,4.48,M*40
$IIMWV,223,T,8.70,N,A*19
$IIRMB,A,0.31,L,,NOODB,4149.00,N,08731.00,W,4.51,129,6.49,V,D*0B
$IIRMC,135334.00,A,4151.85,N,08735.67,W,6.99,134,,003,W,D*13
$IIVHW,127,T,130,M,6.72,N,12.45,K*62
$IIVLW,2903.50,N,2903.50,N*4D
$IIVTG,134,T,137,M,6.99,N,12.96,K,D*08
$IIDPT,7.50,,*70
$IIGGA,135336.00,4151.85,N,08735.67,W,2,12,0.80,,M,,M,,*64
$IIGLL,4151.85,N,08735.67,W,135336.00,A,D*6C
$IIHDG,131,,,003,W*30
$IIHDM,131,M*3F
$IIHDT,128,T*37
$IIMTW,30.42,C*26
$IIMWD,354,T,357,M,9.50,N,4.88,M*4F
$IIMWV,272,R,6.99,N,A*12
$IIRMB,A,0.31,L,,NOODB,4149.00,N,08731.00,W,4.51,129,6.99,V,D*06
$IIRMC,135336.00,A,4151.85,N,08735.67,W,6.53,122,,003,W,D*10
$IIVHW,128,T,131,M,6.66,N,12.34,K*6F
$IIVLW,2903.50,N,2903.50,N*4D
$IIVTG,122,T,125,M,6.53,N,12.09,K,D*0C
$IIDPT,7.30,,*76
$IIGGA,135338.00,4151.85,N,08735.67,W,2,12,0.80,,M,,M,,*6A
$IIGLL,4151.85,N,08735.67,W,135338.00,A,D*62
$IIHDG,130,,,003,W*31
$IIHDM,130,M*3E
$IIHDT,127,T*38
$IIMTW,30.32,C*21
$IIMWD,351,T,354,M,8.92,N,4.59,M*4A
$IIMWV,225,T,9.29,N,A*12
$IIRMB,A,0.31,L,,NOODB,4149.00,N,08731.00,W,4.50,129,6.39,V,D*0D
$IIRMC,135340.00,A,4151.85,N,08735.66,W,6.80,135,,003,W,D*18
$IIVHW,127,T,130,M,6.58,N,12.20,K*69
$IIVLW,2903.51,N,2903.51,N*4D
$IIVTG,135,T,138,M,6.80,N,12.60,K,D*07
$IIDPT,7.09,,*7C
$IIGGA,135342.00,4151.84,N,08735.66,W,2,12,0.80,,M,,M,,*67
$IIGLL,4151.84,N,08735.66,W,135342.00,A,D*6F
$IIHDG,129,,,003,W*39
$IIHDM,129,M*36
$IIHDT,126,T*39
$IIMTW,30.32,C*21
$IIMWD,340,T,343,M,8.04,N,4.13,M*4D
$IIMWV,306,R,6.82,N,A*1A
$IIRMB,A,0.31,L,,NOODB,4149.00,N,08731.00$IIDPT,7.30,,*76
$IIGGA,135344.00,4151.84,N,08735.66,W,2,12,0.80,,M,,M,,*61
$IIGLL,4151.84,N,08735.66,W,135344.00,A,D*69
$IIHDG,130,,,003,W*31
$IIHDM,130,M*3E
$IIHDT,127,T*38
$IIMTW,30.32,C*21
$IIMWD,344,T,347,M,8.53,N,4.38,M*46
$IIMWV,217,T,8.53,N,A*1F
$IIRMB,A,0.31,L,,NOODB,4149.00,N,08731.00,W,4.49,129,6.99,V,D*0F
$IIRMC,135346.00,A,4151.84,N,08735.65,W,6.90,120,,003,W,D*19
$IIVHW,127,T,130,M,6.72,N,12.45,K*62
$IIVLW,2903.52,N,2903.52,N*4D
$IIVTG,120,T,123,M,6.90,N,12.77,K,D*0E
$IIDPT,7.40,,*71
$IIGGA,135348.00,4151.84,N,08735.65,W,2,12,0.80,,M,,M,,*6E
$IIGLL,4151.84,N,08735.65,W,135348.00,A,D*66
$IIHDG,130,,,003,W*31
$IIHDM,130,M*3E
$IIHDT,127,T*38
$IIMTW,30.32,C*21
$IIMWD,345,T,348,M,9.52,N,4.90,M*4A
$IIMWV,308,R,8.66,N,A*10
$IIRMB,A,0.31,L,,NOODB,4149.00,N,08731.00,W,4.48,129,6.70,V,D*09
$IIRMC,135348.00,A,4151.84,N,08735.65,W,6.86,137,,003,W,D*16
$IIVHW,127,T,130,M,6.64,N,12.31,K*66
$IIVLW,2903.52,N,2903.52,N*4D
$IIVTG,137,T,140,M,6.86,N,12.70,K,D*0D
$IIDPT,7.19,,*7D
$IIGGA,135350.00,4151.83,N,08735.64,W,2,12,0.80,,M,,M,,*61
$IIGLL,4151.83,N,08735.64,W,135350.00,A,D*69
$IIHDG,128,,,003,W*38
$IIHDM,128,M*37
$IIHDT,125,T*3A
$IIMTW,30.23,C*21
$IIMWD,336,T,339,M,8.35,N,4.30,M*42
$IIMWV,211,T,8.35,N,A*19
$IIRMB,A,0.31,L,,NOODB,4149.00,N,08731.00,W,4.48,129,6.49,V,D*03
$IIRMC,135352.00,A,4151.83,N,08735.64,W,7.30,140,,003,W,D*17
$IIVHW,123,T,126,M,6.70,N,12.42,K*64
$IIVLW,2903.53,N,2903.53,N*4D
$IIVTG,140,T,143,M,7.30,N,13.53,K,D*02
$IIDPT,7.19,,*7D
$IIGGA,135354.00,4151.83,N,08735.64,W,2,12,0.80,,M,,M,,*65
$IIGLL,4151.83,N,08735.64,W,135354.00,A,D*6D
$IIHDG,125,,,003,W*35
$IIHDM,125,M*3A
$IIHDT,122,T*3D
$IIMTW,30.23,C*21
$IIMWD,347,T,350,M,9.38,N,4.82,M*4E
$IIMWV,306,R,8.59,N,A*12
$IIRMB,A,0.31,L,,NOODB,4149.00,N,08731.00,W,4.47,129,7.40,V,D*04
$IIRMC,135354.00,A,4151.83,N,08735.64,W,6.95,113,,003,W,D*19
$IIVHW,122,T,125,M,6.72,N,12.45,K*63
$IIVLW,2903.54,N,2903.54,N*4D
$IIVTG,113,T,116,M,6.95,N,12.88,K,D*0D
$IIDPT,7.30,,*76
$IIGGA,135356.00,4151.83,N,08735.63,W,2,12,0.80,,M,,M,,*60
$IIGLL,4151.83,N,08735.63,W,135356.00,A,D*68
$IIHDG,125,,,003,W*35
$IIHDM,125,M*3A
$IIHDT,122,T*3D
$IIMTW,30.32,C*21
$IIMWD,351,T,354,M,8.96,N,4.61,M*45
$IIMWV,228,T,8.96,N,A*1A
$IIRMB,A,0.29,L,,NOODB,4149.00,N,08731.00,W,4.47,129,6.80,V,D*00
$IIRMC,135358.00,A,4151.83,N,08735.63,W,6.39,129,,003,W,D*1D
$IIVHW,122,T,125,M,6.70,N,12.42,K*66
$IIVLW,2903.54,N,2903.54,N*4D
$IIVTG,129,T,132,M,6.39,N,11.84,K,D*0B
$IIDPT,7.19,,*7D
$IIGGA,135400.00,4151.82,N,08735.62,W,2,12,0.80,,M,,M,,*64
$IIGLL,4151.82,N,08735.62,W,135400.00,A,D*6C
$IIHDG,125,,,003,W*35
$IIHDM,125,M*3A
$IIHDT,122,T*3D
$IIMTW,30.23,C*21
$IIMWD,352,T,355,M,8.61,N,4.42,M*4E
$IIMWV,292,R,7.40,N,A*19
$IIRMB,A,0.29,L,,NOODB,4149.00,N,08731.00,W,4.46,129,6.49,V,D*04
$IIRMC,135400.00,A,4151.82,N,08735.62,W,6.70,124,,003,W,D*17
$IIVHW,122,T,125,M,6.74,N,12.49,K*69
$IIVLW,2903.55,N,2903.55,N*4D
$IIVTG,124,T,127,M,6.68,N,12.38,K,D*02
$IIDPT,7.30,,*76
$IIGGA,135402.00,4151.82,N,08735.62,W,2,12,0.80,,M,,M,,*66
$IIGLL,4151.82,N,08735.62,W,135402.00,A,D*6E
$IIHDG,127,,,003,W*37
$IIHDM,127,M*38
$IIHDT,123,T*3C
$IIMTW,30.23,C*21
$IIMWD,357,T,000,M,8.61,N,4.42,M*48
$IIMWV,233,T,8.61,N,A*18
$IIRMB,A,0.29,L,,NOODB,4149.00,N,08731.00,W,4.46,129,7.19,V,D*00
$IIRMC,135404.00,A,4151.82,N,08735.62,W,6.70,124,,003,W,D*13
$IIVHW,123,T,127,M,6.70,N,12.42,K*65
$IIVLW,2903.55,N,2903.55,N*4D
$IIVTG,124,T,127,M,6.70,N,12.42,K,D*06
$IIDPT,7.50,,*70
$IIGGA,135406.00,4151.82,N,08735.61,W,2,12,0.80,,M,,M,,*61
$IIGLL,4151.82,N,08735.61,W,135406.00,A,D*69
$IIHDG,127,,,003,W*37
$IIHDM,127,M*38
$IIHDT,124,T*3B
$IIMTW,30.32,C*21
$IIMWD,357,T,000,M,8.78,N,4.52,M*41
$IIMWV,278,R,7.15,N,A*1D
$IIRMB,A,0.29,L,,NOODB,4149.00,N,08731.00,W,4.45,129,6.49,V,D*07
$IIRMC,135406.00,A,4151.82,N,08735.61,W,6.49,123,,003,W,D*1F
$IIVHW,124,T,127,M,6.62,N,12.27,K*62
$IIVLW,2903.56,N,2903.56,N*4D
$IIVTG,123,T,126,M,6.47,N,11.98,K,D*00
$IIDPT,7.50,,*70
$IIGGA,135408.00,4151.81,N,08735.61,W,2,12,0.80,,M,,M,,*6C
$IIGLL,4151.81,N,08735.61,W,135408.00,A,D*64
$IIHDG,126,,,003,W*36
$IIHDM,126,M*39
$IIHDT,123,T*3C
$IIMTW,30.32,C*21
$IIMWD,354,T,357,M,9.64,N,4.96,M*47
$IIMWV,230,T,9.64,N,A*1F
$IIRMB,A,0.29,L,,NOODB,4149.00,N,08731.00,W,4.45,129,6.49,V,D*07
$IIRMC,135410.00,A,4151.81,N,08735.60,W,6.60,122,,003,W,D*10
$IIVHW,123,T,126,M,6.68,N,12.38,K*60
$IIVLW,2903.56,N,2903.56,N*4D
$IIVTG,122,T,125,M,6.60,N,12.23,K,D*04
$IIDPT,7.69,,*7A
$IIGGA,135412.00,4151.81,N,08735.60,W,2,12,0.80,,M,,M,,*66
$IIGLL,4151.81,N,08735.60,W,135412.00,A,D*6E
$IIHDG,126,,,003,W*36
$IIHDM,126,M*39
$IIHDT,123,T*3C
$IIMTW,30.68,C*2E
$IIMWD,352,T,355,M,10.16,N,5.23,M*71
$IIMWV,272,R,7.87,N,A*1C
$IIRMB,A,0.29,L,,NOODB,4149.00,N,08731.00,W,4.44,129,6.80,V,D*03
$IIRMC,135412.00,A,4151.81,N,08735.60,W,6.80,126,,003,W,D*18
$IIVHW,123,T,126,M,6.70,N,12.42,K*64
$IIVLW,2903.57,N,2903.57,N*4D
$IIVTG,126,T,129,M,6.80,N,12.60,K,D*05
$IIDPT,7.80,,*7D
$IIGGA,135414.00,4151.81,N,08735.60,W,2,11,0.80,,M,,M,,*63
$IIGLL,4151.81,N,08735.60,W,135414.00,A,D*68
$IIHDG,126,,,003,W*36
$IIHDM,126,M*39
$IIHDT,123,T*3C
$IIMTW,30.68,C*2E
$IIMWD,351,T,354,M,9.15,N,4.71,M*4E
$IIMWV,227,T,9.15,N,A*1F
$IIRMB,A,0.29,L,,NOODB,4149.00,N,08731.00,W,4.44,129,6.70,V,D*0C
$IIRMC,135416.00,A,4151.81,N,08735.59,W,6.60,128,,003,W,D*16
$IIVHW,123,T,126,M,6.62,N,12.27,K*64
$IIVLW,2903.57,N,2903.57,N*4D
$IIVTG,128,T,131,M,6.60,N,12.23,K,D*0B
$IIDPT,7.80,,*7DHDM,127,M*38
$IIHDT,123,T*3C
$IIMTW,30.32,C*21
$IIMWD,350,T,353,M,8.57,N,4.40,M*4D
$IIMWV,280,R,6.58,N,A*12
$IIRMB,A,0.29,L,,NOODB,4149.00,N,08731.00,W,4.43,129,6.60,V,D*0A
$IIRMC,135418.00,A,4151.80,N,08735.59,W,6.70,124,,003,W,D*14
$IIVHW,123,T,127,M,6.70,N,12.42,K*65
$IIVLW,2903.58,N,2903.58,N*4D
$IIVTG,124,T,127,M,6.74,N,12.49,K,D*09
$IIDPT,7.90,,*7C
$IIGGA,135420.00,4151.80,N,08735.58,W,2,12,0.80,,M,,M,,*6D
$IIGLL,4151.80,N,08735.58,W,135420.00,A,D*65
$IIHDG,128,,,003,W*38
$IIHDM,128,M*37
$IIHDT,125,T*3A
$IIMTW,30.23,C*21
$IIMWD,354,T,357,M,9.05,N,4.65,M*4C
$IIMWV,229,T,9.05,N,A*10
$IIRMB,A,0.29,L,,NOODB,4149.00,N,08731.00,W,4.43,129,6.80,V,D*04
$IIRMC,135422.00,A,4151.80,N,08735.58,W,6.70,127,,003,W,D*1F
$IIVHW,125,T,128,M,6.72,N,12.45,K*69
$IIVLW,2903.59,N,2903.59,N*4D
$IIVTG,127,T,130,M,6.70,N,12.42,K,D*03
$IIDPT,8.00,,*7A
$IIGGA,135424.00,4151.80,N,08735.58,W,2,11,0.80,,M,,M,,*6A
$IIGLL,4151.80,N,08735.58,W,135424.00,A,D*61
$IIHDG,128,,,003,W*38
$IIHDM,128,M*37
$IIHDT,125,T*3A
$IIMTW,30.23,C*21
$IIMWD,349,T,352,M,9.25,N,4.76,M*45
$IIMWV,273,R,6.78,N,A*1C
$IIRMB,A,0.29,L,,NOODB,4149.00,N,08731.00,W,4.42,129,6.70,V,D*0A
$IIRMC,135424.00,A,4151.80,N,08735.58,W,6.80,133,,003,W,D*13
$IIVHW,125,T,128,M,6.74,N,12.49,K*63
$IIVLW,2903.59,N,2903.59,N*4D
$IIVTG,133,T,136,M,6.74,N,12.49,K,D*0F
$IIDPT,8.10,,*7B$IIDPT,8.10,,*7B
$IIGGA,135430.00,4151.79,N,08735.56,W,2,12,0.80,,M,,M,,*64
$IIGLL,4151.79,N,08735.56,W,135430.00,A,D*6C
$IIHDG,127,,,003,W*37
$IIHDM,127,M*38
$IIHDT,124,T*3B
$IIMTW,30.32,C*21
$IIMWD,348,T,351,M,8.68,N,4.46,M*4C
$IIMWV,277,R,6.25,N,A*10
$IIRMB,A,0.29,L,,NOODB,4149.00,N,08731.00,W,4.40,129,7.09,V,D*07
$IIRMC,135430.00,A,4151.79,N,08735.56,W,6.90,123,,003,W,D*1E
$IIVHW,124,T,127,M,6.88,N,12.74,K*60
$IIVLW,2903.60,N,2903.60,N*4D
$IIVTG,123,T,126,M,6.92,N,12.81,K,D*03
$IIDPT,8.19,,*72
$IIGGA,135432.00,4151.79,N,08735.56,W,2,12,0.80,,M,,M,,*66
$IIGLL,415$IIDPT,8.39,,*70
$IIGGA,135436.00,4151.78,N,08735.55,W,2,12,0.80,,M,,M,,*60
$IIGLL,4151.78,N,08735.55,W,135436.00,A,D*68
$IIHDG,126,,,003,W*36
$IIHDM,126,M*39
$IIHDT,123,T*3C
$IIMTW,30.23,C*21
$IIMWD,349,T,352,M,8.55,N,4.40,M*46
$IIMWV,280,R,6.31,N,A*1D
$IIRMB,A,0.29,L,,NOODB,4149.00,N,08731.00,W,4.39,129,6.80,V,D*09
$IIRMC,135436.00,A,4151.78,N,08735.55,W,6.80,121,,003,W,D*19
$IIVHW,123,T,126,M,6.86,N,12.70,K*6C
$IIVLW,2903.61,N,2903.61,N*4D
$IIVTG,121,T,124,M,6.80,N,12.60,K,D*0F
$IIDPT,8.39,,*70
$IIGGA,135438.00,4151.78,N,08735.55,W,2,12,0.80,,M,,M,,*6E
$IIGLL,4151.78,N,08735.55,W,135438.00,A,D*66
$IIHDG,126,,,003,W*36
$IIHDM,126,M*39
$IIHDT,122,T*3D
$IIMTW,30.68,C*2E
$IIMWD,347,T,350,M,8.12,N,4.17,M*4B
$IIMWV,224,T,8.12,N,A*1A
$IIRMB,A,0.29,L,,NOODB,4149.00,N,08731.00,W,4.39,129,6.70,V,D*06
$IIRMC,135438.00,A,4151.78,N,08735.55,W,6.74,125,,003,W,D*18
$IIVHW,122,T,125,M,6.80,N,12.60,K*69
$IIVLW,2903.62,N,2903.62,N*4D
$IIVTG,122,T,125,M,6.49,N,12.02,K,D*0C
$IIDPT,8.39,,*70
$IIGGA,135442.00,4151.78,N,08735.54,W,2,12,0.80,,M,,M,,*62
$IIGLL,4151.78,N,08735.54,W,135442.00,A,D*6A
$IIHDG,124,,,003,W*34
$IIHDM,124,M*3B
$IIHDT,121,T*3E
$IIMTW,30.42,C*26
$IIMWD,347,T,350,M,8.20,N,4.21,M*4F
$IIMWV,279,R,6.08,N,A*11
$IIRMB,A,0.29,L,,NOODB,4149.00,N,08731.00,W,4.38,129,6.70,V,D*07
$IIRMC,135442.00,A,4151.78,N,08735.54,W,6.70,127,,003,W,D*12
$IIVHW,121,T,124,M,6.82,N,12.63,K*6A
$IIVLW,2903.63,N,2903.63,N*4D
$IIVTG,127,T,130,M,6.74,N,12.49,K,D*0C
$IIDPT,8.39,,*708735.54,W,2,12,0.80,,M,,M,,*6B
$IIGLL,4151.77,N,08735.54,W,135444.00,A,D*63
$IIHDG,125,,,003,W*35
$IIHDM,125,M*3A
$IIHDT,122,T*3D
$IIMTW,30.42,C*26
$IIMWD,349,T,352,M,8.57,N,4.40,M*44
$IIMWV,226,T,8.57,N,A*19
$IIRMB,A,0.29,L,,NOODB,4149.00,N,08731.00,W,4.38,129,6.99,V,D*00
$IIRMC,135444.00,A,4151.77,N,08735.54,W,6.80,121,,003,W,D*12
$IIVHW,122,T,126,M,6.76,N,12.52,K*62
$IIVLW,2903.63,N,2903.63,N*4D
$IIVTG,118,T,121,M,6.60,N,12.23,K,D*09
$IIDPT,8.39,,*7080,,M,,M,,*60
$IIGLL,41IIVLW,2903.64,N,2903.64,N*4D
$IIVTG,133,T,136,M,6.64,N,12.31,K,D*01
$IIDPT,8.30,,*79,354,M,8.30,N,4.26,M*4A
$IIMWV,229,T,8.00,N,A*14
$IIRMB,A,0.29,L,,NOODB,4149.00,N,08731.00,W,4.37,129,6.70,V,D*08
$IIRMC,135450.00,A,4151.77,N,08735.52,W,6.58,122,,003,W,D*17
$IIVHW,123,T,126,M,6.60,N,12.23,K*62
$IIVLW,2903.64,N,2903.64,N*4D
$IIVTG,119,T,122,M,6.39,N,11.84,K,D*09
$IIDPT,8.39,,*70735.52,W,2,12,0.80,,M,,M,,*6D
$IIGLL,4151.76,N,08735.52,W,135454.00,A,D*65
$IIHDG,126,,,003,W*36
$IIHDM,126,M*39
$IIHDT,123,T*3C
$IIMTW,30.23,C*21
$IIMWD,346,T,350,M,8.02,N,4.13,M*4F
$IIMWV,279,R,5.85,N,A*17
$IIRMB,A,0.29,L,,NOODB,4149.00,N,08731.00,W,4.36,129,6.49,V,D*03
$IIRMC,135454.00,A,4151.76,N,08735.52,W,6.39,129,,003,W,D*1E
$IIVHW,123,T,126,M,6.60,N,12.23,K*62
$IIVLW,2903.65,N,2903.65,N*4D
$IIVTG,129,T,132,M,6.39,N,11.84,K,D*0B
$IIDPT,8.30,,*79
$IIGGA,135456.00,4151.76,N,08735.51,W,2,12,0.80,,M,,M,,*6C
$IIGLL,4151.76,N,08735.51,W,135456.00,A,D*64
$IIHDG,127,,,003,W*37
$IIHDM,127,M*38
$IIHDT,124,T*3B
$IIMTW,30.23,C*21
$IIMWD,345,T,348,M,7.79,N,4.01,M*45
$IIMWV,220,T,7.79,N,A*1C
$IIRMB,A,0.29,L,,NOODB,4149.00,N,08731.00,W,4.36,129,6.60,V,D*08
$IIRMC,135456.00,A,4151.76,N,08735.51,W,6.58,123,,003,W,D*12
$IIVHW,124,T,127,M,6.60,N,12.23,K*64
$IIVLW,2903.65,N,2903.65,N*4D
$IIVTG,128,T,131,M,6.90,N,12.77,K,D*05
$IIDPT,8.30,,*79,W,135506.00,A,D*6A
$IIHDG,124,,,003,W*34
$IIHDM,124,M*3B
$IIHDT,121,T*3E
$IIMTW,30.23,C*21
$IIMWD,345,T,348,M,7.56,N,3.89,M*4F
$IIMWV,285,R,5.75,N,A*1B
$IIRMB,A,0.29,L,,NOODB,4149.00,N,08731.00,W,4.34,129,6.49,V,D*01
$IIRMC,135506.00,A,4151.75,N,08735.49,W,6.80,125,,003,W,D*1F
$IIVHW,121,T,124,M,6.58,N,12.20,K*6A
$IIVLW,2903.67,N,2903.67,N*4D
$IIVTG,125,T,128,M,6.80,N,1$IIDPT,8.50,,*7F$IIDPT,8.39,,*70
$IIGGA,135512.00,4151.74,N,08735.48,W,2,12,0.80,,M,,M,,*67
$IIGLL,4151.74,N,08735.48,W,135512.00,A,D*6F
$IIHDG,124,,,003,W*34
$IIHDM,124,M*3B
$IIHDT,121,T*3E
$IIMTW,30.77,C*20
$IIMWD,346,T,350,M,7.61,N,3.92,M*4B
$IIMWV,285,R,5.96,N,A*16
$IIRMB,A,0.29,L,,NOODB,4149.00,N,08731.00,W,4.33,129,6.49,V,D*06
$IIRMC,135512.00,A,4151.74,N,08735.48,W,6.90,127,,003,W,D*19
$IIVHW,121,T,124,M,6.66,N,12.34,K*62
$IIVLW,2903.68,N,2903.68,N*4D
$IIVTG,127,T,130,M,6.90,N,12.77,K,D*0B
$IIDPT,8.39,,*70
$IIHDM,125,M*3A
$IIHDT,122,T*3D
$IIMTW,30.23,C*21
$IIMWD,351,T,355,M,7.87,N,4.05,M*49
$IIMWV,229,T,7.87,N,A*14
$IIRMB,A,0.29,L,,NOODB,4149.00,N,08731.00,W,4.32,129,6.90,V,D*03
$IIRMC,135514.00,A,4151.74,N,08735.48,W,7.01,118,,003,W,D*1A
$IIVHW,122,T,125,M,6.70,N,12.42,K*66
$IIVLW,2903.69,N,2903.69,N*4D
$IIVTG,118,T,121,M,7.01,N,12.99,K,D*0E
$IIDPT,8.39,,*70
$IIGGA,135518.00,4151.74,N,08735.47,W,2,12,0.80,,M,,M,,*62
$IIGLL,4151.74,N,08735.47,W,135518.00,A,D*6A
$IIHDG,125,,,003,W*35
$IIHDM,125,M*3A
$IIHDT,122,T*3D
$IIMTW,30.23,C*21
$IIMWD,350,T,353,M,8.08,N,4.15,M*47
$IIMWV,285,R,6.33,N,A*1A
$IIRMB,A,0.29,L,,NOODB,4149.00,N,08731.00,W,4.32,129,6.80,V,D*02
$IIRMC,135518.00,A,4151.74,N,08735.47,W,6.90,127,,003,W,D*1C
$IIVHW,122,T,125,M,6.74,N,12.49,K*69
$IIVLW,2903.69,N,2903.69,N*4D
$IIVTG,127,T,130,M,6.90,N,12.77,K,D*0B
$IIDPT,8.39,,*70
$IIGGA,135520.00,4151.74,N,08735.46,W,2,12,0.80,,M,,M,,*68
$IIGLL,4151.74,N,08735.46,W,135520.00,A,D*60
$IIHDG,124,,,003,W*34
$IIHDM,124,M*3B
$IIHDT,121,T*3E
$IIMTW,30.23,C*21
$IIMWD,348,T,351,M,7.65,N,3.94,M*46
$IIMWV,226,T,7.65,N,A*17
$IIRMB,A,0.28,L,,NOODB,4149.00,N,08731.00,W,4.31,129,6.80,V,D*00
$IIRMC,135520.00,A,4151.74,N,08735.46,W,6.86,125,,003,W,D*13
$IIVHW,121,T,124,M,6.88,N,12.74,K*66
$IIVLW,2903.70,N,2903.70,N*4D
$IIVTG,125,T,128,M,6.86,N,12.70,K,D*00
$IIDPT,8.39,,*70
$IIGGA,135524.00,4151.73,N,08735.45,W,2,12,0.80,,M,,M,,*68
$IIGLL,4151.73,N,08735.45,W,135524.00,A,D*60
$IIHDG,125,,,003,W*35
$IIHDM,125,M*3A
$IIHDT,122,T*3D
$IIMTW,30.23,C*21
$IIMWD,352,T,355,M,8.49,N,4.36,M*47
$IIMWV,286,R,6.90,N,A*10
$IIRMB,A,0.28,L,,NOODB,4149.00,N,08731.00,W,4.30,129,7.30,V,D*0B
$IIRMC,135524.00,A,4151.73,N,08735.45,W,6.99,117,,003,W,D*1C
$IIVHW,122,T,125,M,6.82,N,12.63,K*68
$IIVLW,2903.70,N,2903.70,N*4D
$IIVTG,117,T,120,M,6.99,N,12.96,K,D*0F
$IIDPT,8.39,,*70
$IIGGA,135526.00,4151.73,N,08735.45,W,2,12,0.80,,M,,M,,*6A
$IIGLL,4151.73,N,08735.45,W,135526.00,A,D*62
$IIHDG,125,,,003,W*35
$IIHDM,125,M*3A
$IIHDT,122,T*3D
$II2903.71,N,2903.71,N*4D
$IIVTG,124,T,127,M,6.68,N,12.38,K,D*02
$IIDPT,8.39,,*70
$IIGGA,135528.00,4151.73,N,08735.45,W,2,12,0.80,,M,,M,,*64
$IIGLL,4151.73,N,08735.44,W,135530.00,A,D*64
$IIHDG,124,,,003,W*34
$IIHDM,124,M*3B
$IIHDT,121,T*3E
$IIMTW,30.32,C*21
$IIMWD,348,T,351,M,8.06,N,4.15,M*42
$IIMWV,285,R,6.14,N,A*1F
$IIRMB,A,0.28,L,,NOODB,4149.00,N,08731.00,W,4.29,129,6.90,V,D*08
$IIRMC,135530.00,A,4151.73,N,08735.44,W,7.09,128,,003,W,D*1C
$IIVHW,120,T,124,M,6.90,N,12.77,K*6D
$IIVLW,2903.71,N,2903.71,N*4D
$IIVTG,128,T,131,M,7.09,N,13.14,K,D*00
$IIDPT,8.50,,*7F
$IIGGA,135532.00,4151.72,N,08735.44,W,2,12,0.80,,M,,M,,*6F
$IIGLL,4151.72,N,08735.44,W,135532.00,A,D*67
$IIHDG,123,,,003,W*33
$IIHDM,123,M*3C
$IIHDT,120,T*3F
$IIMTW,30.32,C*21
$IIMWD,348,T,351,M,8.22,N,4.23,M*41
$IIMWV,227,T,8.22,N,A*1A
$IIRMB,A,0.28,L,,NOODB,4149.00,N,08731.00,W,4.29,129,7.19,V,D*08
$IIRMC,135532.00,A,4151.72,N,08735.44,W,7.17,122,,003,W,D*1A
$IIVHW,120,T,123,M,6.92,N,12.81,K*61
$IIVLW,2903.72,N,2903.72,N*$IIDPT,8.39,,*70
$IIGGA,135534.00,4151.72,N,08735.43,W,2,12,0.80,,M,,M,,*6E
$IIGLL,4151.72,N,08735.43,W,135536.00,A,D*64
$IIHDG,124,,,003,W*34
$IIHDM,124,M*3B
$IIHDT,121,T*3E
$IIMTW,30.14,C*25
$IIMWD,348,T,351,M,7.96,N,4.09,M*49
$IIMWV,287,R,6.33,N,A*18
$IIRMB,A,0.28,L,,NOODB,4149.00,N,08731.00,W,4.28,129,6.60,V,D*06
$IIRMC,135536.00,A,4151.72,N,08735.43,W,6.70,123,,003,W,D*18
$IIVHW,120,T,123,M,6.88,N,12.74,K*60
$IIVLW,2903.73,N,2903.73,N*4D
$IIVTG,123,T,126,M,6.70,N,12.42,K,D*00
$IIDPT,8.50,,*7F
$IIGGA,135538.00,4151.72,N,08735.42,W,2,12,0.80,,M,,M,,*63
$IIGLL,4151.72,N,08735.42,W,135538.00,A,D*6B
$IIHDG,123,,,003,W*33
$IIHDM,123,M*3C
$IIHDT,120,T*3F
$IIMTW,30.14,C*25
$IIMWD,347,T,350,M,8.55,N,4.40,M*4A
$IIMWV,227,T,8.55,N,A*1A
$IIRMB,A,0.28,L,,NOODB,4149.00,N,08731.00,W,4.28,129,6.70,V,D*07
$IIRMC,135538.00,A,4151.72,N,08735.42,W,7.13,132,,003,W,D*13
$IIVHW,119,T,123,M,6.80,N,12.60,K*67
$IIVLW,2903.73,N,2903.73,N*4D
$IIVTG,132,T,135,M,7.13,N,13.21,K,D*02
$IIDPT,8.50,,*7F
$IIGGA,135540.00,4151.72,N,08735.42,W,2,12,0.80,,M,,M,,*6C
$IIGLL,4151.71,N,08735.42,W,135542.00,A,D*65
$IIHDG,121,,,003,W*31
$IIHDM,121,M*3E
$IIHDT,118,T*34
$IIMTW,30.32,C*21
$IIMWD,348,T,351,M,8.04,N,4.13,M*46
$IIMWV,291,R,6.80,N,A*17
$IIRMB,A,0.28,L,,NOODB,4149.00,N,08731.00,W,4.27,129,6.90,V,D*06
$IIRMC,135542.00,A,4151.71,N,08735.42,W,6.99,126,,003,W,D*1B
$IIVHW,117,T,120,M,6.88,N,12.74,K*67
$IIVLW,2903.74,N,2903.74,N*4D
$IIVTG,126,T,129,M,6.99,N,12.96,K,D*04
$IIDPT,8.39,,*70MTW,30.23,C*21
$IIMWD,351,T,354,M,8.82,N,4.53,M*41
$IIMWV,232,T,8.82,N,A*14
$IIRMB,A,0.28,L,,NOODB,4149.00,N,08731.00,W,4.27,129,6.99,V,D*0F
$IIRMC,135544.00,A,4151.71,N,08735.41,W,7.01,112,,003,W,D*19
$IIVHW,118,T,121,M,6.88,N,12.74,K*69
$IIVLW,2903.74,N,2903.74,N*4D
$IIVTG,112,T,115,M,7.01,N,12.99,K,D*03
$IIDPT,8.50,,*7F
$IIGGA,135546.00,4151.71,N,08735.41,W,2,11,0.80,,M,,M,,*69
$IIGLL,4151.71,N,08735.40,W,135548.00,A,D*6D
$IIHDG,122,,,003,W*32
$IIHDM,122,M*3D
$IIHDT,119,T*35
$IIMTW,30.23,C*21
$IIMWD,348,T,351,M,8.61,N,4.42,M*41
$IIMWV,283,R,6.72,N,A*19
$IIRMB,A,0.27,L,,NOODB,4149.00,N,08731.00,W,4.26,129,6.70,V,D*06
$IIRMC,135548.00,A,4151.71,N,08735.40,W,6.70,129,,003,W,D*1B
$IIVHW,119,T,122,M,6.88,N,12.74,K*6B
$IIVLW,2903.75,N,2903.75,N*4D
$IIVTG,129,T,132,M,6.70,N,12.42,K,D*0F
$IIDPT,8.39,,*70
$IIGGA,135550.00,4151.70,N,08735.40,W,2,12,0.80,,M,,M,,*6D
$IIGLL,4151.70,N,08735.40,W,135550.00,A,D*65
$IIHDG,122,,,003,W*32
$IIHDM,122,M*3D
$IIHDT,119,T*35
$IIMTW,30.32,C*21
$IIMWD,348,T,351,M,8.49,N,4.36,M*48
$IIMWV,228,T,8.49,N,A*18
$IIRMB,A,0.27,L,,NOODB,4149.00,N,08731.00,W,4.26,129,7.09,V,D*09
$IIRMC,135550.00,A,4151.70,N,08735.40,W,6.80,122,,003,W,D*17
$IIVHW,119,T,122,M,6.90,N,12.77,K*61
$IIVLW,2903.75,N,2903.75,N*4D
$IIVTG,122,T,125,M,6.80,N,12.60,K,D*0D
$IIDPT,8.30,,*79
$IIGGA,135552.00,4151.70,N,08735.39,W,2,12,0.80,,M,,M,,*61
$IIGLL,4151.70,N,08735.39,W,135552.00,A,D*69
$IIHDG,122,,,003,W*32
$IIHDM,122,M*3D
$IIHDT,119,T*35
$IIMTW,30.32,C*21
$IIMWD,348,T,351,M,8.31,N,4.28,M*48
$IIMWV,282,R,6.53,N,A*1B
$IIRMB,A,0.27,L,,NOODB,4149.00,N,08731.00,W,4.25,129,6.90,V,D*0B
$IIRMC,135554.00,A,4151.70,N,08735.39,W,6.90,125,,003,W,D*1B
$IIVHW,119,T,122,M,6.84,N,12.67,K*65
$IIVLW,2903.76,N,2903.76,N*4D
$IIVTG,125,T,128,M,6.90,N,12.77,K,D*00
$IIDPT,8.30,,*79
$IIGGA,135556.00,4151.70,N,08735.39,W,2,12,0.80,,M,,M,,*65
$IIGLL,4151.70,N,08735.39,W,135556.00,A,D*6D
$IIHDG,122,,,003,W*32
$IIHDM,122,M*3D
$IIHDT,119,T*35
$IIMTW,30.23,C*21
$IIMWD,347,T,350,M,8.06,N,4.15,M*4C
$IIMWV,228,T,8.06,N,A*13
$IIRMB,A,0.27,L,,NOODB,4149.00,N,08731.00,W,4.24,129,6.80,V,D*0B
$IIRMC,135556.00,A,4151.70,N,08735.39,W,6.68,122,,003,W,D*19
$IIVHW,118,T,121,M,6.86,N,12.70,K*63
$IIVLW,2903.77,N,2903.77,N*4D
$IIVTG,122,T,125,M,6.68,N,12.38,K,D*06
$IIDPT,8.19,,*72
$IIGGA,135558.00,4151.70,N,08735.38,W,2,12,0.80,,M,,M,,*6A
$IIGLL,4151.70,N,08735.38,W,135558.00,A,D*62
$IIHDG,121,,,003,W*31
$IIHDM,121,M*3E
$IIHDT,118,T*34
$IIMTW,30.23,C*21
$IIMWD,349,T,352,M,8.57,N,4.40,M*44
$IIMWV,283,R,6.92,N,A*17
$IIRMB,A,0.27,L,,NOODB,4149.00,N,08731.00,W,4.24,129,7.19$IIDPT,8.19,,*72
$IIGGA,135602.00,4151.69,N,08735.37,W,2,12,0.80,,M,,M,,*61
$IIGLL,4151.69,N,08735.37,W,135602.00,A,D*69
$IIHDG,122,,,003,W*32
$IIHDM,122,M*3D
$IIHDT,119,T*35
$IIMTW,30.42,C*26
$IIMWD,350,T,353,M,8.12,N,4.17,M*4E
$IIMWV,231,T,8.12,N,A*1E
$IIRMB,A,0.27,L,,NOODB,4149.00,N,08731.00,W,4.23,129,6.70,V,D*03
$IIRMC,135602.00,A,4151.69,N,08735.37,W,6.80,119,,003,W,D*13
$IIVHW,119,T,122,M,6.86,N,12.70,K*61
$IIVLW,2903.78,N,2903.78,N*4D
$IIVTG,119,T,122,M,6.80,N,12.60,K,D*02
$IIDPT,8.39,,*70
$IIGGA,135604.00,4151.69,N,08735.37,W,2,12,0.80,,M,,M,,*67
$IIGLL,4151.69,N,08735.37,W,135604.00,A,D*6F
$IIHDG,121,,,003,W*31
$IIHDM,121,M*3E
$IIHDT,118,T*34
$IIMTW,30.42,C*26
$IIMWD,348,T,351,M,8.16,N,4.19,M*4F
$IIMWV,289,R,6.92,N,A*1D
$IIRMB,A,0.27,L,,NOODB,4149.00,N,08731.00,W,4.23,129,7.09,V,D*0C
$IIRMC,135606.00,A,4151.69,N,08735.36,W,6.90,119,,003,W,D*17
$IIVHW,118,T,122,M,6.82,N,12.63,K*66
$IIVLW,2903.78,N,2903.78,N*4D
$IIVTG,119,T,122,M,6.90,N,12.77,K,D*05
$IIDPT,8.39,,*70
$IIGGA,135608.00,4151.69,N,08735.36,W,2,12,0.80,,M,,M,,*6A
$IIGLL,4151.69,N,08735.36,W,135608.00,A,D*62
$IIHDG,122,,,003,W*32
$IIHDM,122,M*3D
$IIHDT,118,T*34
$IIMTW,30.32,C*21
$IIMWD,348,T,351,M,7.96,N,4.09,M*49
$IIMWV,229,T,7.96,N,A*14
$IIRMB,A,0.27,L,,NOODB,4149.00,N,08731.00,W,4.22,129,6.80,V,D*0D
$IIRMC,135608.00,A,4151.69,N,08735.36,W,6.64,119,,003,W,D*12
$IIVHW,118,T,122,M,6.82,N,12.63,K*66
$IIVLW,2903.79,N,2903.79,N*4D
$IIVTG,119,T,122,M,6.64,N,12.31,K,D*0C
$IIDPT,8.39,,*70
$IIGGA,135610.00,4151.68,N,08735.36,W,2,12,0.80,,M,,M,,*62
$IIGLL,4151.68,N,08735.36,W,135610.00,A,D*6A
$IIHDG,122,,,003,W*32
$IIHDM,122,M*3D
$IIHDT,119,T*35
$IIMTW,30.23,C*21
$IIMWD,347,T,350,M,7.89,N,4.05,M*45
$IIMWV,287,R,6.27,N,A*1D
$IIRMB,A,0.27,L,,NOODB,4149.00,N,08731.00,W,4.21,129,6.90,V,D*0F
$IIRMC,135612.00,A,4151.68,N,08735.35,W,6.90,122,,003,W,D*18
$IIVHW,119,T,122,M,6.84,N,12.67,K*65
$IIVLW,2903.80,N,2903.80,N*4D
$IIVTG,122,T,125,M,6.90,N,12.77,K,D*0A
$IIDPT,8.39,,*70
$IIGGA,135614.00,4151.68,N,08735.35,W,2,12,0.80,,M,,M,,*65
$IIGLL,4151.68,N,08735.35,W,135614.00,A,D*6D
$IIHDG,123,,,003,W*33
$IIHDM,123,M*3C
$IIHDT,119,T*35
$IIMTW,30.23,C*21
$IIMWD,350,T,353,M,7.79,N,4.01,M*4B
$IIMWV,230,T,7.79,N,A*1D
$IIRMB,A,0.27,L,,NOODB,4149.00,N,08731.00,W,4.21,129,6.80,V,D*0E
$IIRMC,135614.00,A,4151.68,N,08735.35,W,6.86,120,,003,W,D*1B
$IIVHW,119,T,123,M,6.82,N,12.63,K*66
$IIVLW,2903.80,N,2903.80,N*4D
$IIVTG,120,T,123,M,6.86,N,12.70,K,D*0E
$IIDPT,8.39,,*70
$IIGGA,135616.00,4151.68,N,08735.34,W,2,12,0.80,,M,,M,,*66
$IIGLL,4151.68,N,08735.34,W,135616.00,A,D*6E
$IIHDG,123,,,003,W*33
$IIHDM,123,M*3C
$IIHDT,120,T*3F
$IIMTW,30.86,C*2E
$IIMWD,353,T,356,M,7.85,N,4.03,M*4C
$IIMWV,292,R,6.92,N,A*17
$IIRMB,A,0.27,L,,NOODB,4149.00,N,08731.00,W,4.20,129,6.90,V,D*0E
$IIRMC,135618.00,A,4151.68,N,08735.34,W,6.99,120,,003,W,D*18
$IIVHW,120,T,123,M,6.84,N,12.67,K*6E
$IIVLW,2903.81,N,2903.81,N*4D
$IIVTG,120,T,123,M,6.99,N,12.96,K,D*08
$IIDPT,8.39,,*70
$IIGGA,135620.00,4151.67,N,08735.33,W,2,12,0.80,,M,,M,,*6B
$IIGLL,4151.67,N,08735.33,W,135620.00,A,D*63
$IIHDG,123,,,003,W*33
$IIHDM,123,M*3C
$IIHDT,120,T*3F
$IIMTW,30.86,C*2E
$IIMWD,354,T,357,M,8.35,N,4.30,M*4E
$IIMWV,233,T,8.35,N,A*19
$IIRMB,A,0.26,L,,NOODB,4149.00,N,08731.00,W,4.20,129,6.90,V,D*0F
$IIRMC,135620.00,A,4151.67,N,08735.33,W,7.01,129,,003,W,D*12
$IIVHW,120,T,123,M,6.80,N,12.60,K*6D
$IIVLW,2903.81,N,2903.81,N*4D
$IIVTG,129,T,132,M,7.01,N,12.99,K,D*0E
$IIDPT,8.39,,*70
$IIGGA,135622.00,4151.67,N,08735.33,W,2,12,0.80,,M,,M,,*69
$IIGLL,4151.67,N,08735.33,W,135622.00,A,D*61
$IIHDG,124,,,003,W*34
$IIHDM,124,M*3B
$IIHDT,121,T*3E
$IIMTW,30.23,C*21
$IIMWD,353,T,356,M,8.16,N,4.19,M*42
$IIMWV,288,R,7.01,N,A*17
$IIRMB,A,0.26,L,,NOODB,4149.00,N,08731.00,W,4.19,129,6.60,V,D*0A
$IIRMC,135624.00,A,4151.67,N,08735.33,W,6.60,126,,003,W,D*1F
$IIVHW,121,T,124,M,6.70,N,12.42,K*64
$IIVLW,2903.82,N,2903.82,N*4D
$IIVTG,126,T,129,M,6.60,N,12.23,K,D*0C
$IIDPT,8.39,,*70
$IIGGA,135626.00,4151.67,N,08735.32,W,2,12,0.80,,M,,M,,*6C
$IIGLL,4151.67,N,08735.32,W,135626.00,A,D*64
$IIHDG,124,,,003,W*34
$IIHDM,124,M*3B
$IIHDT,121,T*3E
$IIMTW,30.23,C*21
$IIMWD,351,T,354,M,7.79,N,4.01,M*4D
$IIMWV,228,T,7.91,N,A*12
$IIRMB,A,0.26,L,,NOODB,4149.00,N,08731.00,W,4.19,129,6.70,V,D*0B
$IIRMC,135626.00,A,4151.67,N,08735.32,W,6.86,127,,003,W,D*15
$IIVHW,121,T,124,M,6.78,N,12.56,K*69
$IIVLW,2903.82,N,2903.82,N*4D
$IIVTG,127,T,130,M,6.86,N,12.70,K,D*0B
$IIDPT,8.39,,*70
$IIGGA,135628.00,4151.66,N,08735.32,W,2,11,0.80,,M,,M,,*60
$IIGLL,4151.66,N,08735.32,W,135628.00,A,D*6B
$IIHDG,125,,,003,W*35
$IIHDM,125,M*3A
$IIHDT,122,T*3D
$IIMTW,30.42,C*26
$IIMWD,353,T,357,M,8.74,N,4.50,M*4A
$IIMWV,285,R,7.32,N,A*1A
$IIRMB,A,0.26,L,,NOODB,4149.00,N,08731.00,W,4.18,129,6.90,V,D*04
$IIRMC,135630.00,A,4151.66,N,08735.31,W,6.99,122,,003,W,D*1B
$IIVHW,122,T,125,M,6.76,N,12.52,K*61
$IIVLW,2903.83,N,2903.83,N*4D
$IIVTG,122,T,125,M,6.99,N,12.96,K,D*0C
$IIDPT,8.39,,*70
$IIGGA,135632.00,4151.66,N,08735.31,W,2,12,0.80,,M,,M,,*6B
$IIGLL,4151.66,N,08735.31,W,135632.00,A,D*63
$IIHDG,126,,,003,W*36
$IIHDM,126,M*39
$IIHDT,123,T*3C
$IIMTW,30.23,C*21
$IIMWD,352,T,356,M,8.65,N,4.44,M*4F
$IIMWV,229,T,8.65,N,A*17
$IIRMB,A,0.26,L,,NOODB,4149.00,N,08731.00,W,4.18,129,6.90,V,D*04
$IIRMC,135632.00,A,4151.66,N,08735.31,W,6.74,131,,003,W,D*18
$IIVHW,123,T,126,M,6.70,N,12.42,K*64
$IIVLW,2903.83,N,2903.83,N*4D
$IIVTG,131,T,134,M,6.74,N,12.49,K,D*0F
$IIDPT,8.39,,*705
$IIVHW,124,T,127,M,6.74,N,12.49,K*6D
$IIVLW,2903.84,N,2903.84,N*4D
$IIVTG,133,T,136,M,6.90,N,12.77,K,D*08
$IIDPT,8.30,,*79
$IIGGA,135638.00,4151.65,N,08735.30,W,2,12,0.80,,M,,M,,*63
$IIGLL,4151.65,N,08735.30,W,135638.00,A,D*6B
$IIHDG,127,,,003,W*37
$IIHDM,127,M*38
$IIHDT,124,T*3B
$IIMTW,30.32,C*21
$IIMWD,352,T,356,M,8.88,N,4.57,M*4E
$IIMWV,228,T,8.88,N,A*15
$IIRMB,A,0.26,L,,NOODB,4149.00,N,08731.00,W,4.16,129,6.90,V,D*0A
$IIRMC,135638.00,A,4151.65,N,08735.30,W,6.95,128,,003,W,D*17
$IIVHW,124,T,127,M,6.78,N,12.56,K*6F
$IIVLW,2903.85,N,2903.85,N*4D
$IIVTG,128,T,131,M,6.95,N,12.88,K,D*00
$IIDPT,8.30,,*79
$IIGGA,135640.00,4151.65,N,08735.29,W,2,12,0.80,,M,,M,,*64
$IIGLL,4151.65,N,08735.29,W,135640.00,A,D*6C
$IIHDG,127,,,003,W*37
$IIHDM,127,M*38
$IIHDT,124,T*3B
$IIMTW,30.32,C*21
$IIMWD,356,T,000,M,9.29,N,4.78,M*4D
$IIMWV,282,R,7.67,N,A*1D
$IIRMB,A,0.26,L,,NOODB,4149.00,N,08731.00,W,4.16,129,7.09,V,D*0B
$IIRMC,135642.00,A,4151.65,N,08735.29,W,7.09,123,,003,W,D*1D
$IIVHW,124,T,127,M,6.84,N,12.67,K*6E
$IIVLW,2903.85,N,2903.85,N*4D
$IIVTG,123,T,126,M,7.09,N,13.14,K,D*0D
$IIDPT,8.39,,*70
$IIGGA,135644.00,4151.65,N,08735.29,W,2,12,0.80,,M,,M,,*60
$IIGLL,4151.65,N,08735.29,W,135644.00,A,D*68
$IIHDG,126,,,003,W*36
$IIHDM,126,M*39
$IIHDT,123,T*3C
$IIMTW,30.23,C*21
$IIMWD,354,T,357,M,8.51,N,4.38,M*44
$IIMWV,230,T,8.51,N,A*18
$IIRMB,A,0.26,L,,NOODB,4149.00,N,08731.00,W,4.15,129,6.90,V,D*09
$IIRMC,135644.00,A,4151.65,N,08735.29,W,6.95,132,,003,W,D*1F
$IIVHW,122,T,126,M,6.78,N,12.56,K*68
$IIVLW,2903.86,N,2903.86,N*4D
$IIVTG,132,T,135,M,6.95,N,12.88,K,D*0F
$IIDPT,8.30,,*79
$IIGGA,135646.00,4151.64,N,08735.28,W,2,12,0.80,,M,,M,,*62
$IIGLL,4151.64,N,08735.28,W,135646.00,A,D*6A
$IIHDG,125,,,003,W*35
$IIHDM,125,M*3A
$IIHDT,122,T*3D
$IIMTW,30.23,C*21
$IIMWD,355,T,359,M,9.19,N,4.73,M*49
$IIMWV,283,R,7.67,N,A*1C
$IIRMB,A,0.26,L,,NOODB,4149.00,N,08731.00,W,4.15,129,6.99,V,D*00
$IIRMC,135648.00,A,4151.64,N,08735.28,W,6.80,118,,003,W,D*1F
$IIVHW,122,T,125,M,6.84,N,12.67,K*6A
$IIVLW,2903.86,N,2903.86,N*4D
$IIVTG,118,T,121,M,6.80,N,12.60,K,D*00
$IIDPT,8.30,,*79
$IIGGA,135650.00,4151.64,N,08735.27,W,2,12,0.80,,M,,M,,*6A
$IIGLL,4151.64,N,08735.27,W,135650.00,A,D*62
$IIHDG,125,,,003,W*35
$IIHDM,125,M*3A
$IIHDT,122,T*3D
$IIMTW,30.14,C*25
$IIMWD,353,T,356,M,8.98,N,4.61,M*4B
$IIMWV,231,T,8.98,N,A*1C
$IIRMB,A,0.26,L,,NOODB,4149.00,N,08731.00,W,4.14,129,6.90,V,D*08
$IIRMC,135650.00,A,4151.64,N,08735.27,W,6.92,128,,003,W,D*19
$IIVHW,122,T,125,M,6.84,N,12.67,K*6A
$IIVLW,2903.87,N,2903.87,N*4D
$IIVTG,128,T,131,M,6.92,N,12.81,K,D*0E
$IIDPT,8.39,,*70
$IIGGA,135652.00,4151.64,N,08735.27,W,2,12,0.80,,M,,M,,*68
$IIGLL,4151.64,N,08735.27,W,135652.00,A,D*60
$IIHDG,125,,,003,W*35
$IIHDM,124,M*3B
$IIHDT,121,T*3E
$IIMTW,30.14,C*25
$IIMWD,353,T,357,M,8.82,N,4.53,M*40
$IIMWV,283,R,7.21,N,A*1E
$IIRMB,A,0.26,L,,NOODB,4149.00,N,08731.00,W,4.14,129,6.99,V,D*01
$IIRMC,135654.00,A,4151.63,N,08735.27,W,7.09,131,,003,W,D*11
$IIVHW,121,T,124,M,6.80,N,12.60,K*6B
$IIVLW,2903.87,N,2903.87,N*4D
$IIVTG,131,T,134,M,7.09,N,13.14,K,D*0D
$IIDPT,8.30,,*79
$IIGGA,135656.00,4151.63,N,08735.26,W,2,12,0.80,,M,,M,,*6A
$IIGLL,4151.63,N,08735.26,W,135656.00,A,D*62
$IIHDG,124,,,003,W*34
$IIHDM,124,M*3B
$IIHDT,121,T*3E
$IIMTW,30.32,C*21
$IIMWD,356,T,359,M,9.07,N,4.67,M*40
$IIMWV,234,T,9.07,N,A*1E
$IIRMB,A,0.26,L,,NOODB,4149.00,N,08731.00,W,4.13,129,6.99,V,D*06
$IIRMC,135656.00,A,4151.63,N,08735.26,W,6.74,123,,003,W,D*1A
$IIVHW,121,T,124,M,6.72,N,12.45,K*61
$IIVLW,2903.88,N,2903.88,N*4D
$IIVTG,123,T,126,M,6.74,N,12.49,K,D*0F
$IIDPT,8.39,,*70
$IIGGA,135658.00,4151.63,N,08735.26,W,2,12,0.80,,M,,M,,*64
$IIGLL,4151.63,N,08735.26,W,135658.00,A,D*6C
$IIHDG,123,,,003,W*33
$IIHDM,123,M*3C
$IIHDT,120,T*3F
$IIMTW,30.32,C*21
$IIMWD,354,T,357,M,8.80,N,4.53,M*45
$IIMWV,284,R,7.32,N,A*1B
$IIRMB,A,0.26,L,,NOODB,4149.00,N,08731.00,W,4.13,129,6.49,V,D*0B
$IIRMC,135700.00,A,4151.63,N,08735.25,W,6.99,121,,003,W,D*1A
$IIVHW,121,T,124,M,6.78,N,12.56,K*69
$IIVLW,2903.89,N,2903.89,N*4D
$IIVTG,121,T,124,M,6.99,N,12.96,K,D*0E
$IIDPT,8.30,,*79
$IIGGA,135702.00,4151.62,N,08735.25,W,2,12,0.80,,M,,M,,*68
$IIGLL,4151.62,N,08735.25,W,135702.00,A,D*60
$IIHDG,124,,,003,W*34
$IIHDM,124,M*3B
$IIHDT,121,T*3E
$IIMTW,30.32,C*21
$IIMWD,353,T,357,M,8.45,N,4.34,M*4A
$IIMWV,232,T,8.45,N,A*1F
$IIRMB,A,0.26,L,,NOODB,4149.00,N,08731.00,W,4.12,129,6.80,V,D*0F
$IIRMC,135702.00,A,4151.62,N,08735.25,W,6.80,122,,003,W,D*12
$IIVHW,121,T,124,M,6.82,N,12.63,K*6A
$IIVLW,2903.89,N,2903.89,N*4D
$IIVTG,122,T,125,M,6.80,N,12.60,K,D*0D
$IIDPT,8.39,,*70
$IIGGA,135704.00,4151.62,N,08735.24,W,2,12,0.80,,M,,M,,*6F
$IIGLL,4151.62,N,08735.24,W,135704.00,A,D*67
$IIHDG,125,,,003,W*35
$IIHDM,125,M*3A
$IIHDT,122,T*3D
$IIMTW,30.32,C*21
$IIMWD,354,T,357,M,8.76,N,4.51,M*4E
$IIMWV,281,R,7.19,N,A*17
$IIRMB,A,0.26,L,,NOODB,4149.00,N,08731.00,W,4.12,129,6.80,V,D*0F
$IIRMC,135706.00,A,4151.62,N,08735.24,W,6.80,122,,003,W,D*17
$IIVHW,121,T,125,M,6.76,N,12.52,K*62
$IIVLW,2903.90,N,2903.90,N*4D
$IIVTG,122,T,125,M,6.80,N,12.60,K,D*0D
$IIDPT,8.30,,*79
