2011-06-11 14:02:37Z - Input Logging Started
N*4D
$IIVTG,110,T,113,M,7.19,N,13.31,K,D*0D
$IIDPT,8.60,,*7C
$IIGGA,140244.00,4151.43,N,08734.75,W,2,12,0.80,,M,,M,,*6A
$IIGLL,4151.43,N,08734.75,W,140244.00,A,D*62
$IIHDG,113,,,003,W*30
$IIHDM,113,M*3F
$IIHDT,110,T*3C
$IIMTW,24.20,C*27
$IIMWD,357,T,001,M,7.05,N,3.63,M*40
$IIMWV,247,T,7.05,N,A*16
$IIRMB,A,0.02,L,,NOODB,4149.00,N,08731.00,W,3.71,131,6.80,V,D*02
$IIRMC,140244.00,A,4151.43,N,08734.75,W,7.30,109,,003,W,D*13
$IIVHW,110,T,113,M,6.97,N,12.92,K*66
$IIVLW,2862.43,N,2862.43,N*4D
$IIVTG,109,T,112,M,7.23,N,13.39,K,D*05
$IIDPT,8.60,,*7C
$IIGGA,140246.00,4151.43,N,08734.74,W,2,12,0.80,,M,,M,,*69
$IIGLL,4151.43,N,08734.74,W,140246.00,A,D*61
$IIHDG,113,,,003,W*30
$IIHDM,113,M*3F
$IIHDT,110,T*3C
$IIMTW,24.29,C*2E
$IIMWD,358,T,001,M,6.84,N,3.52,M*45
$IIMWV,306,R,8.30,N,A*1D
$IIRMB,A,0.01,L,,NOODB,4149.00,N,08731.00,W,3.71,131,6.39,V,D*03
$IIRMC,140248.00,A,4151.43,N,08734.74,W,6.99,108,,003,W,D*1D
$IIVHW,110,T,114,M,6.95,N,12.88,K*68
$IIVLW,2862.43,N,2862.43,N*4D
$IIVTG,108,T,111,M,6.99,N,12.96,K,D*03
$IIDPT,8.60,,*7C
$IIGGA,140250.00,4151.43,N,08734.73,W,2,12,0.80,,M,,M,,*69
$IIGLL,4151.43,N,08734.73,W,140250.00,A,D*61
$IIHDG,115,,,003,W*36
$IIHDM,115,M*39
$IIHDT,111,T*3D
$IIMTW,24.29,C*2E
$IIMWD,359,T,002,M,6.49,N,3.33,M*41
$IIMWV,247,T,6.49,N,A*1F
$IIRMB,A,0.01,L,,NOODB,4149.00,N,08731.00,W,3.70,131,5.90,V,D*02
$IIRMC,140250.00,A,4151.43,N,08734.73,W,7.19,110,,003,W,D*13
$IIVHW,112,T,115,M,6.97,N,12.92,K*62
$IIVLW,2862.44,N,2862.44,N*4D
$IIVTG,110,T,113,M,7.17,N,13.28,K,D*0B
$IIDPT,8.69,,*75
$IIGGA,140252.00,4151.43,N,08734.73,W,2,12,0.80,,M,,M,,*6B
$IIGLL,4151.43,N,08734.73,W,140252.00,A,D*63
$IIHDG,116,,,003,W*35
$IIHDM,116,M*3A
$IIHDT,113,T*3F
$IIMTW,24.20,C*27
$IIMWD,001,T,004,M,7.11,N,3.66,M*45
$IIMWV,306,R,8.18,N,A*17
$IIRMB,A,0.01,L,,NOODB,4149.00,N,08731.00,W,3.70,131,7.09,V,D*00
$IIRMC,140254.00,A,4151.43,N,08734.72,W,6.99,109,,003,W,D*17
$IIVHW,113,T,117,M,7.01,N,12.99,K*64
$IIVLW,2862.44,N,2862.44,N*4D
$IIVTG,109,T,112,M,6.99,N,12.96,K,D*01
$IIDPT,8.69,,*75
$IIGGA,140256.00,4151.42,N,08734.72,W,2,12,0.80,,M,,M,,*6F
$IIGLL,4151.42,N,08734.72,W,140256.00,A,D*67
$IIHDG,118,,,003,W*3B
$IIHDM,118,M*34
$IIHDT,115,T*39
$IIMTW,24.20,C*27
$IIMWD,356,T,000,M,7.09,N,3.65,M*4A
$IIMWV,240,T,7.09,N,A*1D
$IIRMB,A,0.01,L,,NOODB,4149.00,N,08731.00,W,3.69,131,6.80,V,D*08
$IIRMC,140256.00,A,4151.42,N,08734.72,W,7.40,120,,003,W,D*1A
$IIVHW,115,T,119,M,7.01,N,12.99,K*6C
$IIVLW,2862.45,N,2862.45,N*4D
$IIVTG,120,T,124,M,7.34,N,13.60,K,D*01
$IIDPT,8.69,,*75
$IIGGA,140258.00,4151.42,N,08734.71,W,2,12,0.80,,M,,M,,*62
$IIGLL,4151.42,N,08734.71,W,140258.00,A,D*6A
$IIHDG,121,,,003,W*31
$IIHDM,121,M*3E
$IIHDT,117,T*3B
$IIMTW,24.38,C*2E
$IIMWD,358,T,001,M,6.88,N,3.53,M*48
$IIMWV,303,R,7.23,N,A*15
$IIRMB,A,0.01,L,,NOODB,4149.00,N,08731.00,W,3.68,131,6.90,V,D*08
$IIRMC,140258.00,A,4151.42,N,08734.71,W,7.07,116,,003,W,D*11
$IIVHW,118,T,121,M,6.92,N,12.81,K*68
$IIVLW,2862.45,N,2862.45,N*4D
$IIVTG,120,T,123,M,6.70,N,12.42,K,D*06
$IIDPT,8.60,,*7C
$IIGGA,140302.00,4151.42,N,08734.71,W,2,12,0.80,,M,,M,,*6C
$IIGLL,4151.42,N,08734.71,W,140302.00,A,D*64
$IIHDG,122,,,003,W*32
$IIHDM,122,M*3D
$IIHDT,119,T*35
$IIMTW,24.38,C*2E
$IIMWD,355,T,358,M,6.84,N,3.52,M*47
$IIMWV,235,T,6.84,N,A*1B
$IIRMB,A,0.01,L,,NOODB,4149.00,N,08731.00,W,3.68,131,6.90,V,D*08
$IIRMC,140302.00,A,4151.42,N,08734.71,W,7.19,123,,003,W,D*16
$IIVHW,120,T,123,M,7.03,N,13.03,K*63
$IIVLW,2862.46,N,2862.46,N*4D
$IIVTG,123,T,126,M,7.17,N,13.28,K,D*0D
$IIDPT,8.80,,*72
$IIGGA,140304.00,4151.42,N,08734.70,W,2,12,0.80,,M,,M,,*6B
$IIGLL,4151.42,N,08734.70,W,140304.00,A,D*63
$IIHDG,127,,,003,W*37
$IIHDM,127,M*38
$IIHDT,123,T*3C
$IIMTW,24.38,C*2E
$IIMWD,356,T,359,M,7.40,N,3.80,M*43
$IIMWV,295,R,6.72,N,A*1E
$IIRMB,A,0.00,R,,NOODB,4149.00,N,08731.00,W,3.67,131,7.09,V,D*19
$IIRMC,140304.00,A,4151.42,N,08734.70,W,7.40,125,,003,W,D*1B
$IIVHW,124,T,127,M,6.92,N,12.81,K*61
$IIVLW,2862.47,N,2862.47,N*4D
$IIVTG,130,T,133,M,6.90,N,12.77,K,D*0E
$IIDPT,8.60,,*7C
$IIGGA,140308.00,4151.41,N,08734.69,W,2,12,0.80,,M,,M,,*6C
$IIGLL,4151.41,N,08734.69,W,140308.00,A,D*64
$IIHDG,129,,,003,W*39
$IIHDM,129,M*36
$IIHDT,126,T*39
$IIMTW,24.38,C*2E
$IIMWD,354,T,357,M,6.82,N,3.51,M*4C
$IIMWV,229,T,6.82,N,A*10
$IIRMB,A,0.01,L,,NOODB,4149.00,N,08731.00,W,3.66,131,6.80,V,D*07
$IIRMC,140308.00,A,4151.41,N,08734.69,W,6.70,136,,003,W,D*1C
$IIVHW,126,T,129,M,7.01,N,12.99,K*6F
$IIVLW,2862.47,N,2862.47,N*4D
$IIVTG,136,T,139,M,6.68,N,12.38,K,D*0E
$IIDPT,8.69,,*75
$IIGGA,140310.00,4151.41,N,08734.69,W,2,12,0.80,,M,,M,,*65
$IIGLL,4151.41,N,08734.69,W,140310.00,A,D*6D
$IIHDG,130,,,003,W*31
$IIHDM,130,M*3E
$IIHDT,127,T*38
$IIMTW,24.38,C*2E
$IIMWD,355,T,358,M,6.88,N,3.53,M*4A
$IIMWV,298,R,5.98,N,A*14
$IIRMB,A,0.01,L,,NOODB,4149.00,N,08731.00,W,3.66,131,7.09,V,D*07
$IIRMC,140310.00,A,4151.41,N,08734.69,W,7.34,135,,003,W,D*17
$IIVHW,127,T,130,M,7.05,N,13.06,K*65
$IIVLW,2862.48,N,2862.48,N*4D
$IIVTG,132,T,135,M,7.40,N,13.71,K,D*01
$IIDPT,8.69,,*75
$IIGGA,140314.00,4151.40,N,08734.68,W,2,12,0.80,,M,,M,,*61
$IIGLL,4151.40,N,08734.68,W,140314.00,A,D*69
$IIHDG,133,,,003,W*32
$IIHDM,133,M*3D
$IIHDT,129,T*36
$IIMTW,24.38,C*2E
$IIMWD,358,T,001,M,6.60,N,3.40,M*4C
$IIMWV,228,T,6.60,N,A*1D
$IIRMB,A,0.01,L,,NOODB,4149.00,N,08731.00,W,3.65,131,7.30,V,D*0E
$IIRMC,140314.00,A,4151.40,N,08734.68,W,6.90,133,,003,W,D*1A
$IIVHW,130,T,133,M,6.95,N,12.88,K*6F
$IIVLW,2862.48,N,2862.48,N*4D
$IIVTG,133,T,136,M,6.95,N,12.88,K,D*0D
$IIDPT,8.60,,*7C
$IIGGA,140316.00,4151.40,N,08734.68,W,2,12,0.80,,M,,M,,*63
$IIGLL,4151.40,N,08734.68,W,140316.00,A,D*6B
$IIHDG,134,,,003,W*35
$IIHDM,134,M*3A
$IIHDT,130,T*3E
$IIMTW,24.38,C*2E
$IIMWD,353,T,356,M,6.35,N,3.26,M*46
$IIMWV,302,R,5.22,N,A*17
$IIRMB,A,0.01,L,,NOODB,4149.00,N,08731.00,W,3.65,131,6.90,V,D*05
$IIRMC,140316.00,A,4151.40,N,08734.68,W,6.68,138,,003,W,D*14
$IIVHW,130,T,133,M,7.01,N,12.99,K*63
$IIVLW,2862.49,N,2862.49,N*4D
$IIVTG,142,T,145,M,7.40,N,13.71,K,D*01
$IIDPT,8.80,,*72
$IIGGA,140320.00,4151.39,N,08734.67,W,2,12,0.80,,M,,M,,*67
$IIGLL,4151.39,N,08734.67,W,140320.00,A,D*6F
$IIHDG,135,,,003,W*34
$IIHDM,135,M*3B
$IIHDT,132,T*3C
$IIMTW,24.38,C*2E
$IIMWD,358,T,001,M,6.78,N,3.49,M*4C
$IIMWV,226,T,6.78,N,A*1A
$IIRMB,A,0.01,L,,NOODB,4149.00,N,08731.00,W,3.64,131,7.60,V,D*0A
$IIRMC,140320.00,A,4151.39,N,08734.67,W,7.19,135,,003,W,D*1A
$IIVHW,132,T,135,M,6.88,N,12.74,K*64
$IIVLW,2862.49,N,2862.49,N*4D
$IIVTG,135,T,138,M,7.19,N,13.31,K,D*03
$IIDPT,8.60,,*7C
$IIGGA,140322.00,4151.39,N,08734.67,W,2,12,0.80,,M,,M,,*65
$IIGLL,4151.39,N,08734.67,W,140322.00,A,D*6D
$IIHDG,135,,,003,W*34
$IIHDM,135,M*3B
$IIHDT,132,T*3C
$IIMTW,24.38,C*2E
$IIMWD,343,T,346,M,6.02,N,3.09,M*4F
$IIMWV,316,R,4.74,N,A*10
$IIRMB,A,0.01,L,,NOODB,4149.00,N,08731.00,W,3.64,131,6.70,V,D*0A
$IIRMC,140322.00,A,4151.39,N,08734.67,W,6.53,137,,003,W,D*15
$IIVHW,132,T,135,M,6.84,N,12.67,K*6A
$IIVLW,2862.50,N,2862.50,N*4D
$IIVTG,147,T,150,M,7.19,N,13.31,K,D*08
$IIDPT,8.69,,*756.23,N,A*17
$IIRMB,A,0.01,L,,NOODB,4149.00,N,08731.00,W,3.63,131,7.09,V,D*02
$IIRMC,140326.00,A,4151.38,N,08734.66,W,7.30,131,,003,W,D*13
$IIVHW,131,T,134,M,6.90,N,12.77,K*6C
$IIVLW,2862.51,N,2862.51,N*4D
$IIVTG,131,T,134,M,7.30,N,13.53,K,D*04
$IIDPT,8.69,,*75
$IIGGA,140328.00,4151.38,N,08734.66,W,2,12,0.80,,M,,M,,*6F
$IIGLL,4151.38,N,08734.66,W,140328.00,A,D*67
$IIHDG,133,,,003,W*32
$IIHDM,133,M*3D
$IIHDT,130,T*3E
$IIMTW,24.20,C*27
$IIMWD,349,T,353,M,6.16,N,3.17,M*4B
$IIMWV,311,R,5.40,N,A*11
$IIRMB,A,0.01,L,,NOODB,4149.00,N,08731.00,W,3.62,131,7.19,V,D*02
$IIRMC,140328.00,A,4151.38,N,08734.66,W,7.23,136,,003,W,D*18
$IIVHW,130,T,133,M,6.93,N,12.85,K*64
$IIVLW,2862.51,N,2862.51,N*4D
$IIVTG,136,T,139,M,7.30,N,13.53,K,D*0E
$IIDPT,8.80,,*72
$IIGGA,140332.00,4151.38,N,08734.65,W,2,12,0.80,,M,,M,,*67
$IIGLL,4151.38,N,08734.65,W,140332.00,A,D*6F
$IIHDG,133,,,003,W*32
$IIHDM,133,M*3D
$IIHDT,130,T*3E
$IIMTW,24.38,C*2E
$IIMWD,351,T,354,M,6.08,N,3.13,M*4E
$IIMWV,221,T,6.08,N,A*1A
$IIRMB,A,0.01,L,,NOODB,4149.00,N,08731.00,W,3.62,131,7.30,V,D*09
$IIRMC,140332.00,A,4151.38,N,08734.65,W,6.99,126,,003,W,D*11
$IIVHW,130,T,133,M,6.90,N,12.77,K*6A
$IIVLW,2862.52,N,2862.52,N*4D
$IIVTG,126,T,129,M,6.99,N,12.96,K,D*04
$IIDPT,8.60,,*7C
$IIGGA,140334.00,4151.37,N,08734.65,W,2,12,0.80,,M,,M,,*6E
$IIGLL,4151.37,N,08734.65,W,140334.00,A,D*66
$IIHDG,130,,,003,W*31
$IIHDM,130,M*3E
$IIHDT,127,T*38
$IIMTW,24.38,C*2E
$IIMWD,347,T,350,M,6.33,N,3.26,M*43
$IIMWV,310,R,5.83,N,A*1F
$IIRMB,A,0.01,L,,NOODB,4149.00,N,08731.00,W,3.61,131,6.70,V,D*0F
$IIRMC,140334.00,A,4151.37,N,08734.65,W,6.92,138,,003,W,D*1C
$IIVHW,127,T,130,M,6.97,N,12.92,K*63
$IIVLW,2862.52,N,2862.52,N*4D
$IIVTG,132,T,135,M,7.50,N,13.89,K,D*07
$IIDPT,8.69,,*75
$IIGGA,140338.00,4151.37,N,08734.64,W,2,12,0.80,,M,,M,,*63
$IIGLL,4151.37,N,08734.64,W,140338.00,A,D*6B
$IIHDG,130,,,003,W*31
$IIHDM,130,M*3E
$IIHDT,127,T*38
$IIMTW,24.38,C*2E
$IIMWD,349,T,352,M,6.39,N,3.28,M*4B
$IIMWV,222,T,6.39,N,A*1B
$IIRMB,A,0.01,L,,NOODB,4149.00,N,08731.00,W,3.60,131,7.30,V,D*0B
$IIRMC,140338.00,A,4151.37,N,08734.64,W,7.19,125,,003,W,D*1F
$IIVHW,127,T,130,M,6.95,N,12.88,K*6A
$IIVLW,2862.53,N,2862.53,N*4D
$IIVTG,125,T,129,M,7.19,N,13.31,K,D*02
$IIDPT,8.69,,*75
$IIGGA,140340.00,4151.37,N,08734.63,W,2,12,0.80,,M,,M,,*6B
$IIGLL,4151.37,N,08734.63,W,140340.00,A,D*63
$IIHDG,129,,,003,W*39
$IIHDM,129,M*36
$IIHDT,126,T*39
$IIMTW,24.38,C*2E
$IIMWD,351,T,354,M,6.62,N,3.41,M*45
$IIMWV,306,R,6.22,N,A*10
$IIRMB,A,0.01,L,,NOODB,4149.00,N,08731.00,W,3.60,131,6.80,V,D*01
$IIRMC,140340.00,A,4151.37,N,08734.63,W,7.01,134,,003,W,D*1E
$IIVHW,126,T,129,M,6.95,N,12.88,K*63
$IIVLW,2862.54,N,2862.54,N*4D
$IIVTG,127,T,131,M,7.19,N,13.31,K,D*09
$IIDPT,8.69,,*75
$IIGGA,140344.00,4151.36,N,08734.63,W,2,12,0.80,,M,,M,,*6E
$IIGLL,4151.36,N,08734.63,W,140344.00,A,D*66
$IIHDG,130,,,003,W*31
$IIHDM,130,M*3E
$IIHDT,127,T*38
$IIMTW,24.38,C*2E
$IIMWD,349,T,352,M,5.75,N,2.96,M*44
$IIMWV,220,T,5.59,N,A*1C
$IIRMB,A,0.01,L,,NOODB,4149.00,N,08731.00,W,3.59,131,7.09,V,D*0B
$IIRMC,140344.00,A,4151.36,N,08734.63,W,7.30,132,,003,W,D*1F
$IIVHW,127,T,130,M,6.95,N,12.88,K*6A
$IIVLW,2862.54,N,2862.54,N*4D
$IIVTG,132,T,135,M,7.30,N,13.53,K,D*06
$IIDPT,8.69,,*75
$IIGGA,140346.00,4151.36,N,08734.62,W,2,12,0.80,,M,,M,,*6D
$IIGLL,4151.36,N,08734.62,W,140346.00,A,D*65
$IIHDG,130,,,003,W*31
$IIHDM,130,M*3E
$IIHDT,127,T*38
$IIMTW,24.29,C*2E
$IIMWD,354,T,357,M,6.93,N,3.56,M*4B
$IIMWV,307,R,6.80,N,A*19
$IIRMB,A,0.01,L,,NOODB,4149.00,N,08731.00,W,3.59,131,7.19,V,D*0A
$IIRMC,140346.00,A,4151.36,N,08734.62,W,7.28,137,,003,W,D*10
$IIVHW,127,T,130,M,6.99,N,12.96,K*69
$IIVLW,2862.55,N,2862.55,N*4D
$IIVTG,137,T,140,M,7.28,N,13.50,K,D*0B
$IIDPT,8.69,,*75
$IIGGA,140350.00,4151.35,N,08734.61,W,2,12,0.80,,M,,M,,*6A
$IIGLL,4151.35,N,08734.61,W,140350.00,A,D*62
$IIHDG,130,,,003,W*31
$IIHDM,130,M*3E
$IIHDT,127,T*38
$IIMTW,24.29,C*2E
$IIMWD,345,T,348,M,6.47,N,3.32,M*4E
$IIMWV,217,T,6.47,N,A*14
$IIRMB,A,0.01,L,,NOODB,4149.00,N,08731.00,W,3.58,131,7.19,V,D*0B
$IIRMC,140350.00,A,4151.35,N,08734.61,W,7.50,138,,003,W,D*17
$IIVHW,127,T,130,M,7.01,N,12.99,K*66
$IIVLW,2862.55,N,2862.55,N*4D
$IIVTG,138,T,141,M,7.50,N,13.89,K,D*0E
$IIDPT,8.69,,*75
$IIGGA,140352.00,4151.35,N,08734.61,W,2,12,0.80,,M,,M,,*68
$IIGLL,4151.35,N,08734.61,W,140352.00,A,D*60
$IIHDG,131,,,003,W*30
$IIHDM,131,M*3F
$IIHDT,129,T*36
$IIMTW,24.81,C*2C
$IIMWD,352,T,355,M,6.49,N,3.33,M*4B
$IIMWV,306,R,6.18,N,A*19
$IIRMB,A,0.01,L,,NOODB,4149.00,N,08731.00,W,3.58,131,7.40,V,D*07
$IIRMC,140352.00,A,4151.35,N,08734.61,W,7.28,133,,003,W,D*11
$IIVHW,130,T,133,M,6.90,N,12.77,K*6A
$IIVLW,2862.56,N,2862.56,N*4D
$IIVTG,133,T,136,M,7.28,N,13.50,K,D*0E
$IIDPT,8.60,,*7C
$IIGGA,140354.00,4151.35,N,08734.61,W,2,12,0.80,,M,,M,,*6E
$IIGLL,4151.34,N,08734.60,W,140356.00,A,D*64
$IIHDG,133,,,003,W*32
$IIHDM,133,M*3D
$IIHDT,130,T*3E
$IIMTW,23.87,C*2D
$IIMWD,352,T,355,M,6.18,N,3.18,M*46
$IIMWV,221,T,6.18,N,A*1B
$IIRMB,A,0.01,L,,NOODB,4149.00,N,08731.00,W,3.57,131,6.60,V,D*0B
$IIRMC,140356.00,A,4151.34,N,08734.60,W,6.70,142,,003,W,D*1F
$IIVHW,130,T,133,M,6.99,N,12.96,K*6C
$IIVLW,2862.56,N,2862.56,N*4D
$IIVTG,142,T,145,M,6.70,N,12.42,K,D*02
$IIDPT,8.69,,*75
$IIGGA,140358.00,4151.34,N,08734.60,W,2,12,0.80,,M,,M,,*62
$IIGLL,4151.34,N,08734.60,W,140358.00,A,D*6A
$IIHDG,133,,,003,W*32
$IIHDM,133,M*3D
$IIHDT,131,T*3F
$IIMTW,23.87,C*2D
$IIMWD,351,T,355,M,6.39,N,3.28,M*45
$IIMWV,302,R,5.24,N,A*11
$IIRMB,A,0.01,L,,NOODB,4149.00,N,08731.00,W,3.57,131,6.99,V,D*0D
$IIRMC,140358.00,A,4151.34,N,08734.60,W,7.56,143,,003,W,D*15
$IIVHW,131,T,134,M,7.01,N,12.99,K*65
$IIVLW,2862.57,N,2862.57,N*4D
$IIVTG,143,T,146,M,7.56,N,14.00,K,D*05
$IIDPT,8.69,,*75
$IIGGA,140400.00,4151.34,N,08734.60,W,2,12,0.80,,M,,M,,*68
$IIGLL,4151.33,N,08734.59,W,140402.00,A,D*6F
$IIHDG,134,,,003,W*35
$IIHDM,134,M*3A
$IIHDT,131,T*3F
$IIMTW,24.38,C*2E
$IIMWD,357,T,000,M,6.29,N,3.24,M*4D
$IIMWV,225,T,6.29,N,A*1D
$IIRMB,A,0.01,L,,NOODB,4149.00,N,08731.00,W,3.56,131,7.09,V,D*04
$IIRMC,140402.00,A,4151.33,N,08734.59,W,6.90,138,,003,W,D*17
$IIVHW,131,T,134,M,6.90,N,12.77,K*6C
$IIVLW,2862.58,N,2862.58,N*4D
$IIVTG,138,T,141,M,6.90,N,12.77,K,D*03
$IIDPT,8.60,,*7C
$IIGGA,140404.00,4151.33,N,08734.59,W,2,12,0.80,,M,,M,,*61
$IIGLL,4151.33,N,08734.59,W,140404.00,A,D*69
$IIHDG,133,,,003,W*32
$IIHDM,133,M*3D
$IIHDT,130,T*3E
$IIMTW,24.38,C*2E
$IIMWD,348,T,351,M,5.65,N,2.91,M*40
$IIMWV,312,R,5.07,N,A*11
$IIRMB,A,0.01,L,,NOODB,4149.00,N,08731.00,W,3.55,131,6.80,V,D*07
$IIRMC,140404.00,A,4151.33,N,08734.59,W,6.68,139,,003,W,D*17
$IIVHW,130,T,133,M,7.03,N,13.03,K*63
$IIVLW,2862.58,N,2862.58,N*4D
$IIVTG,139,T,142,M,6.68,N,12.38,K,D*0D
$IIDPT,8.80,,*72
$IIGGA,140406.00,4151.33,N,08734.59,W,2,12,0.80,,M,,M,,*63
$IIGLL,4151.33,N,08734.58,W,140408.00,A,D*64
$IIHDG,132,,,003,W*33
$IIHDM,132,M*3C
$IIHDT,128,T*37
$IIMTW,24.12,C*26
$IIMWD,349,T,353,M,6.20,N,3.19,M*40
$IIMWV,221,T,6.20,N,A*10
$IIRMB,A,0.01,L,,NOODB,4149.00,N,08731.00,W,3.54,131,7.69,V,D*00
$IIRMC,140408.00,A,4151.33,N,08734.58,W,7.69,134,,003,W,D*17
$IIVHW,128,T,131,M,6.95,N,12.88,K*64
$IIVLW,2862.59,N,2862.59,N*4D
$IIVTG,134,T,138,M,7.69,N,14.25,K,D*07
$IIDPT,8.39,,*70
$IIGGA,140410.00,4151.32,N,08734.58,W,2,12,0.80,,M,,M,,*64
$IIGLL,4151.32,N,08734.58,W,140410.00,A,D*6C
$IIHDG,129,,,003,W*39
$IIHDM,129,M*36
$IIHDT,126,T*39
$IIMTW,24.12,C*26
$IIMWD,351,T,354,M,5.87,N,3.01,M*49
$IIMWV,305,R,5.20,N,A*12
$IIRMB,A,0.01,L,,NOODB,4149.00,N,08731.00,W,3.54,131,7.19,V,D*07
$IIRMC,140410.00,A,4151.32,N,08734.58,W,6.68,130,,003,W,D*1B
$IIVHW,125,T,129,M,6.88,N,12.74,K*6F
$IIVLW,2862.59,N,2862.59,N*4D
$IIVTG,130,T,133,M,6.68,N,12.38,K,D*02
$IIDPT,8.50,,*7F
$IIGGA,140412.00,4151.32,N,08734.58,W,2,12,0.80,,M,,M,,*66
$IIGLL,4151.32,N,08734.57,W,140414.00,A,D*67
$IIHDG,128,,,003,W*38
$IIHDM,128,M*37
$IIHDT,125,T*3A
$IIMTW,24.29,C*2E
$IIMWD,350,T,353,M,5.98,N,3.07,M*47
$IIMWV,225,T,5.98,N,A*14
$IIRMB,A,0.01,L,,NOODB,4149.00,N,08731.00,W,3.53,131,7.19,V,D*00
$IIRMC,140414.00,A,4151.32,N,08734.57,W,7.30,130,,003,W,D*1C
$IIVHW,125,T,128,M,6.86,N,12.70,K*64
$IIVLW,2862.60,N,2862.60,N*4D
$IIVTG,130,T,133,M,7.30,N,13.53,K,D*02
$IIDPT,8.69,,*75
$IIGGA,140416.00,4151.32,N,08734.57,W,2,12,0.80,,M,,M,,*6D
$IIGLL,4151.32,N,08734.57,W,140416.00,A,D*65
$IIHDG,128,,,003,W*38
$IIHDM,128,M*37
$IIHDT,124,T*3B
$IIMTW,24.38,C*2E
$IIMWD,356,T,000,M,5.98,N,3.07,M*44
$IIMWV,305,R,5.77,N,A*10
$IIRMB,A,0.01,L,,NOODB,4149.00,N,08731.00,W,3.53,131,7.09,V,D*01
$IIRMC,140416.00,A,4151.32,N,08734.57,W,6.64,122,,003,W,D*1D
$IIVHW,125,T,128,M,6.86,N,12.70,K*64
$IIVLW,2862.60,N,2862.60,N*4D
$IIVTG,122,T,125,M,6.64,N,12.31,K,D*03
$IIDPT,9.10,,*7A
$IIGGA,140418.00,4151.31,N,08734.56,W,2,12,0.80,,M,,M,,*61
$IIGLL,4151.31,N,08734.56,W,140418.00,A,D*69
$IIHDG,128,,,003,W*38
$IIHDM,128,M*37
$IIHDT,125,T*3A
$IIMTW,24.38,C*2E
$IIMWD,355,T,358,M,6.53,N,3.35,M*4C
$IIMWV,229,T,6.53,N,A*1C
$IIRMB,A,0.01,L,,NOODB,4149.00,N,08731.00,W,3.52,131,7.09,V,D*00
$IIRMC,140420.00,A,4151.31,N,08734.56,W,7.50,134,,003,W,D*1B
$IIVHW,126,T,129,M,6.86,N,12.70,K*66
$IIVLW,2862.61,N,2862.61,N*4D
$IIVTG,134,T,137,M,7.50,N,13.89,K,D*03
$IIDPT,9.10,,*7A
$IIGGA,140422.00,4151.31,N,08734.55,W,2,12,0.80,,M,,M,,*6B
$IIGLL,4151.31,N,08734.55,W,140422.00,A,D*63
$IIHDG,128,,,003,W*38
$IIHDM,128,M*37
$IIHDT,124,T*3B
$IIMTW,24.29,C*2E
$IIMWD,356,T,359,M,5.75,N,2.96,M*41
$IIMWV,309,R,5.65,N,A*1F
$IIRMB,A,0.01,L,,NOODB,4149.00,N,08731.00,W,3.52,131,6.99,V,D*08
$IIRMC,140422.00,A,4151.31,N,08734.55,W,6.86,130,,003,W,D*14
$IIVHW,124,T,127,M,6.92,N,12.81,K*61
$IIVLW,2862.62,N,2862.62,N*4D
$IIVTG,130,T,133,M,6.86,N,12.70,K,D*0E
$IIDPT,9.19,,*73M*4E
$IIMWV,232$IIDPT,9.39,,*71
$IIGGA,140428.00,4151.30,N,08734.54,W,2,12,0.80,,M,,M,,*61
$IIGLL,4151.30,N,08734.54,W,140428.00,A,D*69
$IIHDG,125,,,003,W*35
$IIHDM,125,M*3A
$IIHDT,122,T*3D
$IIMTW,24.38,C*2E
$IIMWD,358,T,001,M,5.98,N,3.07,M*4B
$IIMWV,308,R,6.33,N,A*1E
$IIRMB,A,0.01,L,,NOODB,4149.00,N,08731.00,W,3.51,131,7.40,V,D*0E
$IIRMC,140428.00,A,4151.30,N,08734.54,W,7.34,122,,003,W,D*15
$IIVHW,121,T,125,M,6.97,N,12.92,K*61
$IIVLW,2862.63,N,2862.63,N*4D
$IIVTG,122,T,126,M,7.34,N,13.60,K,D*01
$IIDPT,9.50,,*7E
$IIGGA,140430.00,4151.30,N,08734.54,W,2,12,0.80,,M,,M,,*68
$IIGLL,4151.30,N,08734.54,W,140430.00,A,D*60
$IIHDG,123,,,003,W*33
$IIHDM,123,M*3C
$IIHDT,120,T*3F
$IIMTW,24.38,C*2E
$IIMWD,358,T,002,M,6.35,N,3.26,M*4F
$IIMWV,237,T,6.29,N,A*1E
$IIRMB,A,0.01,L,,NOODB,4149.00,N,08731.00,W,3.50,131,6.80,V,D*02
$IIRMC,140432.00,A,4151.30,N,08734.53,W,7.09,121,,003,W,D*14
$IIVHW,120,T,123,M,7.01,N,12.99,K*63
$IIVLW,2862.63,N,2862.63,N*4D
$IIVTG,121,T,124,M,7.09,N,13.14,K,D*0D
$IIDPT,9.50,,*7E
$IIGGA,140434.00,4151.29,N,08734.53,W,2,12,0.80,,M,,M,,*63
$IIGLL,4151.29,N,08734.53,W,140434.00,A,D*6B
$IIHDG,124,,,003,W*34
$IIHDM,124,M*3B
$IIHDT,121,T*3E
$IIMTW,24.29,C*2E
$IIMWD,359,T,002,M,6.25,N,3.22,M*4B
$IIMWV,305,R,6.53,N,A*15
$IIRMB,A,0.01,L,,NOODB,4149.00,N,08731.00,W,3.50,131,7.09,V,D*02
$IIRMC,140434.00,A,4151.29,N,08734.53,W,7.34,122,,003,W,D*17
$IIVHW,121,T,124,M,7.01,N,12.99,K*65
$IIVLW,2862.64,N,2862.64,N*4D
$IIVTG,122,T,125,M,7.34,N,13.60,K,D*02
$IIDPT,9.39,,*71
$IIGGA,140436.00,4151.29,N,08734.52,W,2,12,0.80,,M,,M,,*60
$IIGLL,4151.29,N,08734.52,W,140436.00,A,D*68
$IIHDG,124,,,003,W*34
$IIHDM,124,M*3B
$IIHDT,121,T*3E
$IIMTW,24.55,C*25
$IIMWD,355,T,358,M,6.00,N,3.08,M*44
$IIMWV,234,T,6.00,N,A*16
$IIRMB,A,0.01,L,,NOODB,4149.00,N,08731.00,W,3.49,131,7.19,V,D*0B
$IIRMC,140438.00,A,4151.29,N,08734.52,W,7.09,125,,003,W,D*13
$IIVHW,122,T,125,M,7.01,N,12.99,K*67
$IIVLW,2862.65,N,2862.65,N*4D
$IIVTG,125,T,128,M,7.09,N,13.14,K,D*05
$IIDPT,9.50,,*7E
$IIGGA,140440.00,4151.29,N,08734.51,W,2,12,0.80,,M,,M,,*62
$IIGLL,4151.29,N,08734.51,W,140440.00,A,D*6A
$IIHDG,126,,,003,W*36
$IIHDM,126,M*39
$IIHDT,122,T*3D
$IIMTW,24.55,C*25
$IIMWD,354,T,358,M,6.23,N,3.21,M*4F
$IIMWV,304,R,6.08,N,A*1A
$IIRMB,A,0.01,L,,NOODB,4149.00,N,08731.00,W,3.48,131,7.19,V,D*0A
$IIRMC,140440.00,A,4151.29,N,08734.51,W,7.17,125,,003,W,D*10
$IIVHW,123,T,126,M,6.99,N,12.96,K*6A
$IIVLW,2862.65,N,2862.65,N*4D
$IIVTG,125,T,128,M,7.17,N,13.28,K,D*05
$IIDPT,9.39,,*71
$IIGGA,140442.00,4151.28,N,08734.51,W,2,12,0.80,,M,,M,,*61
$IIGLL,4151.28,N,08734.51,W,140442.00,A,D*69
$IIHDG,126,,,003,W*36
$IIHDM,126,M*39
$IIHDT,123,T*3C
$IIMTW,24.29,C*2E
$IIMWD,357,T,000,M,5.71,N,2.94,M*49
$IIMWV,233,T,5.71,N,A*14
$IIRMB,A,0.01,L,,NOODB,4149.00,N,08731.00,W,3.48,131,6.90,V,D*0A
$IIRMC,140444.00,A,4151.28,N,08734.51,W,7.09,133,,003,W,D*1D
$IIVHW,124,T,127,M,6.99,N,12.96,K*6C
$IIVLW,2862.66,N,2862.66,N*4D
$IIVTG,133,T,136,M,7.09,N,13.14,K,D*0D
$IIDPT,9.50,,*7E
$IIGGA,140446.00,4151.28,N,08734.50,W,2,12,0.80,,M,,M,,*64
$IIGLL,4151.28,N,08734.50,W,140446.00,A,D*6C
$IIHDG,128,,,003,W*38
$IIHDM,128,M*37
$IIHDT,125,T*3A
$IIMTW,24.29,C*2E
$IIMWD,359,T,003,M,5.73,N,2.95,M*47
$IIMWV,309,R,6.12,N,A*1C
$IIRMB,A,0.01,L,,NOODB,4149.00,N,08731.00,W,3.47,131,7.30,V,D*0E
$IIRMC,140446.00,A,4151.28,N,08734.50,W,7.40,129,,003,W,D*18
$IIVHW,124,T,128,M,6.90,N,12.77,K*65
$IIVLW,2862.66,N,2862.66,N*4D
$IIVTG,129,T,132,M,7.40,N,13.71,K,D*0C
$IIDPT,9.30,,*78
$IIGGA,140448.00,4151.28,N,08734.50,W,2,12,0.80,,M,,M,,*6A
$IIGLL,4151.28,N,08734.50,W,140448.00,A,D*62
$IIHDG,128,,,003,W*38
$IIHDM,128,M*37
$IIHDT,125,T*3A
$IIMTW,24.38,C*2E
$IIMWD,358,T,001,M,6.04,N,3.10,M*4B
$IIMWV,233,T,6.16,N,A*16
$IIRMB,A,0.01,L,,NOODB,4149.00,N,08731.00,W,3.46,131,6.90,V,D*04
$IIRMC,140450.00,A,4151.27,N,08734.50,W,6.80,128,,003,W,D*1C
$IIVHW,125,T,128,M,6.86,N,12.70,K*64
$IIVLW,2862.67,N,2862.67,N*4D
$IIVTG,128,T,131,M,6.80,N,12.60,K,D*02
$IIDPT,9.39,,*71
$IIGGA,140452.00,4151.27,N,08734.49,W,2,12,0.80,,M,,M,,*66
$IIGLL,4151.27,N,08734.49,W,140452.00,A,D*6E
$IIHDG,128,,,003,W*38
$IIHDM,128,M*37
$IIHDT,125,T*3A
$IIMTW,24.38,C*2E
$IIMWD,348,T,351,M,5.67,N,2.92,M*41
$IIMWV,317,R,5.63,N,A*16
$IIRMB,A,0.01,L,,NOODB,4149.00,N,08731.00,W,3.46,131,6.90,V,D*04
$IIRMC,140452.00,A,4151.27,N,08734.49,W,6.86,132,,003,W,D*1B
$IIVHW,124,T,127,M,6.84,N,12.67,K*6E
$IIVLW,2862.67,N,2862.67,N*4D
$IIVTG,132,T,135,M,6.86,N,12.70,K,D*0A
$IIDPT,9.39,,*71
$IIGGA,140454.00,4151.27,N,08734.49,W,2,12,0.80,,M,,M,,*60
$IIGLL,4151.27,N,08734.49,W,140454.00,A,D*68
$IIHDG,128,,,003,W*38
$IIHDM,128,M*37
$IIHDT,124,T*3B
$IIMTW,24.29,C*2E
$IIMWD,355,T,358,M,6.72,N,3.46,M*4B
$IIMWV,230,T,6.72,N,A*17
$IIRMB,A,0.01,L,,NOODB,4149.00,N,08731.00,W,3.45,131,7.19,V,D*07
$IIRMC,140456.00,A,4151.27,N,08734.48,W,6.90,117,,003,W,D*1E
$IIVHW,124,T,128,M,6.72,N,12.45,K*68
$IIVLW,2862.68,N,2862.68,N*4D
$IIVTG,117,T,120,M,6.90,N,12.77,K,D*09
$IIDPT,9.30,,*78
$IIGGA,140458.00,4151.26,N,08734.48,W,2,12,0.80,,M,,M,,*6C
$IIGLL,4151.26,N,08734.48,W,140458.00,A,D*64
$IIHDG,126,,,003,W*36
$IIHDM,126,M*39
$IIHDT,123,T*3C
$IIMTW,24.29,C*2E
$IIMWD,340,T,343,M,6.00,N,3.08,M*4A
$IIMWV,323,R,6.45,N,A*16
$IIRMB,A,0.01,L,,NOODB,4149.00,N,08731.00,W,3.45,131,6.60,V,D*08
$IIRMC,140458.00,A,4151.26,N,08734.48,W,6.80,134,,003,W,D*11
$IIVHW,122,T,126,M,6.76,N,12.52,K*62
$IIVLW,2862.69,N,2862.69,N*4D
$IIVTG,134,T,137,M,6.80,N,12.60,K,D*09
$IIDPT,9.39,,*71
$IIGGA,140500.00,4151.26,N,08734.48,W,2,12,0.80,,M,,M,,*60
$IIGLL,4151.26,N,08734.48,W,140500.00,A,D*68
$IIHDG,127,,,003,W*37
$IIHDM,127,M*38
$IIHDT,124,T*3B
$IIMTW,24.46,C*27
$IIMWD,346,T,349,M,5.98,N,3.07,M*4B
$IIMWV,218,T,5.71,N,A*1D
$IIRMB,A,0.01,L,,NOODB,4149.00,N,08731.00,W,3.44,131,6.99,V,D*0F
$IIRMC,140502.00,A,4151.26,N,08734.47,W,6.90,121,,003,W,D*15
$IIVHW,123,T,127,M,6.70,N,12.42,K*65
$IIVLW,2862.69,N,2862.69,N*4D
$IIVTG,121,T,124,M,6.90,N,12.77,K,D*08
$IIDPT,9.30,,*78
$IIGGA,140504.00,4151.26,N,08734.47,W,2,12,0.80,,M,,M,,*6B
$IIGLL,4151.26,N,08734.47,W,140504.00,A,D*63
$IIHDG,125,,,003,W*35
$IIHDM,125,M*3A
$IIHDT,122,T*3D
$IIMTW,24.20,C*27
$IIMWD,349,T,353,M,5.77,N,2.97,M*46
$IIMWV,320,R,6.74,N,A*17
$IIRMB,A,0.01,L,,NOODB,4149.00,N,08731.00,W,3.44,131,6.90,V,D*06
$IIRMC,140504.00,A,4151.26,N,08734.47,W,6.95,136,,003,W,D*10
$IIVHW,122,T,125,M,6.74,N,12.49,K*69
$IIVLW,2862.70,N,2862.70,N*4D
$IIVTG,136,T,139,M,6.95,N,12.88,K,D*07
$IIDPT,9.39,,*71
$IIGGA,140506.00,4151.25,N,08734.46,W,2,12,0.80,,M,,M,,*6B
$IIGLL,4151.25,N,08734.46,W,140506.00,A,D*63
$IIHDG,125,,,003,W*35
$IIHDM,125,M*3A
$IIHDT,122,T*3D
$IIMTW,24.20,C*27
$IIMWD,353,T,357,M,5.88,N,3.02,M*44
$IIMWV,231,T,5.88,N,A*10
$IIRMB,A,0.01,L,,NOODB,4149.00,N,08731.00,W,3.43,131,6.90,V,D*01
$IIRMC,140508.00,A,4151.25,N,08734.46,W,6.99,123,,003,W,D*16
$IIVHW,122,T,125,M,6.74,N,12.49,K*69
$IIVLW,2862.70,N,2862.70,N*4D
$IIVTG,123,T,127,M,6.99,N,12.96,K,D*0F
$IIDPT,9.30,,*78
$IIGGA,140510.00,4151.25,N,08734.45,W,2,12,0.80,,M,,M,,*6F
$IIGLL,4151.25,N,08734.45,W,140510.00,A,D*67
$IIHDG,125,,,003,W*35
$IIHDM,125,M*3A
$IIHDT,122,T*3D
$IIMTW,24.38,C*2E
$IIMWD,355,T,359,M,5.59,N,2.88,M*43
$IIMWV,314,R,6.37,N,A*17
$IIRMB,A,0.01,L,,NOODB,4149.00,N,08731.00,W,3.42,131,6.90,V,D*00
$IIRMC,140510.00,A,4151.25,N,08734.45,W,6.92,126,,003,W,D*12
$IIVHW,122,T,125,M,6.76,N,12.52,K*61
$IIVLW,2862.71,N,2862.71,N*4D
$IIVTG,126,T,129,M,6.92,N,12.81,K,D*09
$IIDPT,9.30,,*78
$IIGGA,140512.00,4151.25,N,08734.45,W,2,12,0.80,,M,,M,,*6D
$IIGLL,4151.25,N,08734.45,W,140512.00,A,D*65
$IIHDG,124,,,003,W*34
$IIHDM,124,M*3B
$IIHDT,121,T*3E
$IIMTW,24.38,C*2E
$IIMWD,356,T,000,M,5.38,N,2.77,M*48
$IIMWV,234,T,5.38,N,A*1E
$IIRMB,A,0.01,L,,NOODB,4149.00,N,08731.00,W,3.42,131,6.80,V,D*01
$IIRMC,140514.00,A,4151.25,N,08734.45,W,6.90,128,,003,W,D*1A
$IIVHW,121,T,124,M,6.74,N,12.49,K*6B
$IIVLW,2862.71,N,2862.71,N*4D
$IIVTG,128,T,131,M,6.90,N,12.77,K,D*05
$IIDPT,9.30,,*78
$IIGGA,140516.00,4151.24,N,08734.44,W,2,12,0.80,,M,,M,,*69
$IIGLL,4151.24,N,08734.44,W,140516.00,A,D*61
$IIHDG,123,,,003,W*33
$IIHDM,123,M*3C
$IIHDT,120,T*3F
$IIMTW,24.64,C*27
$IIMWD,356,T,000,M,5.44,N,2.79,M*4D
$IIMWV,312,R,6.20,N,A*17
$IIRMB,A,0.01,L,,NOODB,4149.00,N,08731.00,W,3.41,131,6.99,V,D*0A
$IIRMC,140516.00,A,4151.24,N,08734.44,W,7.01,126,,003,W,D*1F
$IIVHW,119,T,122,M,6.76,N,12.52,K*6E
$IIVLW,2862.72,N,2862.72,N*4D
$IIVTG,126,T,129,M,7.01,N,12.99,K,D*0B
$IIDPT,9.19,,*73
$IIGGA,140518.00,4151.24,N,08734.44,W,2,12,0.80,,M,,M,,*67
$IIGLL,4151.24,N,08734.44,W,140518.00,A,D*6F
$IIHDG,121,,,003,W*31
$IIHDM,121,M*3E
$IIHDT,118,T*34
$IIMTW,24.64,C*27
$IIMWD,349,T,352,M,5.09,N,2.61,M*47
$IIMWV,231,T,5.09,N,A*19
$IIRMB,A,0.01,L,,NOODB,4149.00,N,08731.00,W,3.41,131,6.99,V,D*0A
$IIRMC,140520.00,A,4151.24,N,08734.43,W,7.19,122,,003,W,D*10
$IIVHW,118,T,121,M,6.80,N,12.60,K*64
$IIVLW,2862.72,N,2862.72,N*4D
$IIVTG,122,T,125,M,7.19,N,13.31,K,D*09
$IIDPT,9.30,,*78
$IIGGA,140522.00,4151.24,N,08734.43,W,2,12,0.80,,M,,M,,*69
$IIGLL,4151.24,N,08734.43,W,140522.00,A,D*61
$IIHDG,121,,,003,W*31
$IIHDM,121,M*3E
$IIHDT,118,T*34
$IIMTW,24.46,C*27
$IIMWD,355,T,358,M,5.32,N,2.74,M*4C
$IIMWV,315,R,6.39,N,A*18
$IIRMB,A,0.01,L,,NOODB,4149.00,N,08731.00,W,3.40,131,7.30,V,D*09
$IIRMC,140522.00,A,4151.24,N,08734.43,W,7.07,120,,003,W,D*1F
$IIVHW,117,T,121,M,6.74,N,12.49,K*6B
$IIVLW,2862.73,N,2862.73,N*4D
$IIVTG,120,T,123,M,7.07,N,13.10,K,D*01
$IIDPT,9.30,,*78
$IIGGA,140524.00,4151.24,N,08734.42,W,2,12,0.80,,M,,M,,*6E
$IIGLL,4151.24,N,08734.42,W,140524.00,A,D*66
$IIHDG,120,,,003,W*30
$IIHDM,120,M*3F
$IIHDT,117,T*3B
$IIMTW,24.55,C*25
$IIMWD,353,T,356,M,5.40,N,2.78,M*4D
$IIMWV,236,T,5.40,N,A*13
$IIRMB,A,0.00,R,,NOODB,4149.00,N,08731.00,W,3.40,131,6.70,V,D*13
$IIRMC,140526.00,A,4151.23,N,08734.42,W,6.90,121,,003,W,D*13
$IIVHW,117,T,120,M,6.88,N,12.74,K*67
$IIVLW,2862.74,N,2862.74,N*4D
$IIVTG,121,T,124,M,6.90,N,12.77,K,D*08
$IIDPT,9.30,,*78
$IIGGA,140528.00,4151.23,N,08734.41,W,2,12,0.80,,M,,M,,*66
$IIGLL,4151.23,N,08734.41,W,140528.00,A,D*6E
$IIHDG,122,,,003,W*32
$IIHDM,122,M*3D
$IIHDT,119,T*35
$IIMTW,24.55,C*25
$IIMWD,353,T,356,M,5.46,N,2.80,M*4C
$IIMWV,312,R,6.12,N,A*16
$IIRMB,A,0.00,R,,NOODB,4149.00,N,08731.00,W,3.39,131,6.99,V,D*1A
$IIRMC,140528.00,A,4151.23,N,08734.41,W,7.23,120,,003,W,D*16
$IIVHW,119,T,122,M,6.90,N,12.77,K*61
$IIVLW,2862.74,N,2862.74,N*4D
$IIVTG,120,T,123,M,7.23,N,13.39,K,D*0C
$IIDPT,9.30,,*78
$IIGGA,140530.00,4151.23,N,08734.41,W,2,12,0.80,,M,,M,,*6F
$IIGLL,4151.23,N,08734.41,W,140530.00,A,D*67
$IIHDG,123,,,003,W*33
$IIHDM,123,M*3C
$IIHDT,120,T*3F
$IIMTW,24.64,C*27
$IIMWD,353,T,356,M,5.30,N,2.73,M*41
$IIMWV,233,T,5.30,N,A*11
$IIRMB,A,0.00,R,,NOODB,4149.00,N,08731.00,W,3.39,131,6.99,V,D*1A
$IIRMC,140532.00,A,4151.23,N,08734.41,W,7.19,124,,003,W,D*10
$IIVHW,121,T,124,M,6.93,N,12.85,K*62
$IIVLW,2862.75,N,2862.75,N*4D
$IIVTG,124,T,127,M,7.19,N,13.31,K,D*0D
$IIDPT,9.39,,*71
$IIGGA,140534.00,4151.22,N,08734.40,W,2,12,0.80,,M,,M,,*6B
$IIGLL,4151.22,N,08734.40,W,140534.00,A,D*63
$IIHDG,126,,,003,W*36
$IIHDM,126,M*39
$IIHDT,123,T*3C
$IIMTW,24.64,C*27
$IIMWD,349,T,352,M,4.84,N,2.49,M*49
$IIMWV,318,R,5.38,N,A*17
$IIRMB,A,0.00,R,,NOODB,4149.00,N,08731.00,W,3.38,131,7.19,V,D*12
$IIRMC,140534.00,A,4151.22,N,08734.40,W,7.13,126,,003,W,D*1E
$IIVHW,123,T,126,M,6.97,N,12.92,K*60
$IIVLW,2862.75,N,2862.75,N*4D
$IIVTG,126,T,129,M,7.13,N,13.21,K,D*0A
$IIDPT,9.50,,*7E
$IIGGA,140536.00,4151.22,N,08734.40,W,2,12,0.80,,M,,M,,*69
$IIGLL,4151.22,N,08734.40,W,140536.00,A,D*61
$IIHDG,127,,,003,W*37
$IIHDM,127,M*38
$IIHDT,124,T*3B
$IIMTW,24.38,C*2E
$IIMWD,349,T,352,M,5.63,N,2.90,M*45
$IIMWV,224,T,5.63,N,A*11
$IIRMB,A,0.00,R,,NOODB,4149.00,N,08731.00,W,3.37,131,7.09,V,D*1C
$IIRMC,140538.00,A,4151.22,N,08734.39,W,7.50,130,,003,W,D*1C
$IIVHW,124,T,127,M,7.05,N,13.06,K*60
$IIVLW,2862.76,N,2862.76,N*4D
$IIVTG,130,T,133,M,7.50,N,13.89,K,D*03
$IIDPT,9.30,,*78
$IIGGA,140540.00,4151.22,N,08734.39,W,2,12,0.80,,M,,M,,*66
$IIGLL,4151.22,N,08734.39,W,140540.00,A,D*6E
$IIHDG,127,,,003,W*37
$IIHDM,127,M*38
$IIHDT,124,T*3B
$IIMTW,24.38,C*2E
$IIMWD,337,T,340,M,5.15,N,2.65,M*44
$IIMWV,326,R,5.28,N,A*1B
$IIRMB,A,0.00,R,,NOODB,4149.00,N,08731.00,W,3.37,131,7.09,V,D*1C
$IIRMC,140540.00,A,4151.22,N,08734.39,W,7.13,132,,003,W,D*16
$IIVHW,124,T,127,M,7.07,N,13.10,K*65
$IIVLW,2862.76,N,2862.76,N*4D
$IIVTG,132,T,135,M,7.13,N,13.21,K,D*02
$IIDPT,9.50,,*7E
$IIGGA,140542.00,4151.21,N,08734.39,W,2,12,0.80,,M,,M,,*67
$IIGLL,4151.21,N,08734.39,W,140542.00,A,D*6F
$IIHDG,128,,,003,W*38
$IIHDM,128,M*37
$IIHDT,125,T*3A
$IIMTW,24.90,C*2C
$IIMWD,348,T,351,M,6.14,N,3.16,M*4B
$IIMWV,224,T,6.08,N,A*1F
$IIRMB,A,0.00,R,,NOODB,4149.00,N,08731.00,W,3.36,131,7.09,V,D*1D
$IIRMC,140544.00,A,4151.21,N,08734.38,W,7.50,123,,003,W,D*17
$IIVHW,125,T,128,M,6.93,N,12.85,K*6A
$IIVLW,2862.77,N,2862.77,N*4D
$IIVTG,123,T,126,M,7.50,N,13.89,K,D*05
$IIDPT,9.39,,*71
$IIGGA,140546.00,4151.21,N,08734.38,W,2,12,0.80,,M,,M,,*62
$IIGLL,4151.21,N,08734.38,W,140546.00,A,D*6A
$IIHDG,128,,,003,W*38
$IIHDM,127,M*38
$IIHDT,124,T*3B
$IIMTW,24.81,C*2C
$IIMWD,349,T,352,M,4.99,N,2.56,M*4B
$IIMWV,321,R,5.65,N,A*15
$IIRMB,A,0.00,R,,NOODB,4149.00,N,08731.00,W,3.35,131,6.80,V,D*1E
$IIRMC,140546.00,A,4151.21,N,08734.38,W,6.60,133,,003,W,D*16
$IIVHW,124,T,127,M,6.95,N,12.88,K*6F
$IIVLW,2862.78,N,2862.78,N*4D
$IIVTG,133,T,136,M,6.64,N,12.31,K,D*01
$IIDPT,9.60,,*7D
$IIGGA,140548.00,4151.21,N,08734.37,W,2,12,0.80,,M,,M,,*63
$IIGLL,4151.21,N,08734.37,W,140548.00,A,D*6B
$IIHDG,127,,,003,W*37
$IIHDM,127,M*38
$IIHDT,124,T*3B
$IIMTW,24.81,C*2C
$IIMWD,356,T,359,M,5.94,N,3.05,M*45
$IIMWV,231,T,5.94,N,A*1D
$IIRMB,A,0.00,R,,NOODB,4149.00,N,08731.00,W,3.35,131,6.80,V,D*1E
$IIRMC,140550.00,A,4151.20,N,08734.37,W,7.40,124,,003,W,D*1A
$IIVHW,125,T,128,M,6.95,N,12.88,K*61
$IIVLW,2862.78,N,2862.78,N*4D
$IIVTG,124,T,127,M,7.40,N,13.71,K,D*05
$IIDPT,9.50,,*7E
$IIGGA,140552.00,4151.20,N,08734.37,W,2,12,0.80,,M,,M,,*69
$IIGLL,4151.20,N,08734.37,W,140552.00,A,D*61
$IIHDG,128,,,003,W*38
$IIHDM,128,M*37
$IIHDT,124,T*3B
$IIMTW,24.98,C*24
$IIMWD,352,T,356,M,5.09,N,2.61,M*49
$IIMWV,318,R,5.63,N,A*19
$IIRMB,A,0.00,R,,NOODB,4149.00,N,08731.00,W,3.34,131,6.90,V,D*1E
$IIRMC,140552.00,A,4151.20,N,08734.37,W,6.90,130,,003,W,D*11
$IIVHW,125,T,128,M,6.95,N,12.88,K*61
$IIVLW,2862.79,N,2862.79,N*4D
$IIVTG,130,T,133,M,6.86,N,12.70,K,D*0E
$IIDPT,9.50,,*7E
$IIGGA,140554.00,4151.20,N,08734.36,W,2,12,0.80,,M,,M,,*6E
$IIGLL,4151.20,N,08734.36,W,140554.00,A,D*66
$IIHDG,128,,,003,W*38
$IIHDM,128,M*37
$IIHDT,125,T*3A
$IIMTW,24.98,C*24
$IIMWD,356,T,359,M,5.55,N,2.85,M*41
$IIMWV,230,T,5.55,N,A*11
$IIRMB,A,0.00,R,,NOODB,4149.00,N,08731.00,W,3.34,131,7.30,V,D*15
$IIRMC,140556.00,A,4151.20,N,08734.36,W,6.99,128,,003,W,D*14
$IIVHW,126,T,129,M,6.82,N,12.63,K*60
$IIVLW,2862.79,N,2862.79,N*4D
$IIVTG,128,T,131,M,6.99,N,12.96,K,D*03
$IIDPT,9.50,,*7E
$IIGGA,140558.00,4151.19,N,08734.35,W,2,12,0.80,,M,,M,,*6B
$IIGLL,4151.19,N,08734.35,W,140558.00,A,D*63
$IIHDG,129,,,003,W*39
$IIHDM,129,M*36
$IIHDT,125,T*3A
$IIMTW,24.55,C*25
$IIMWD,347,T,350,M,4.62,N,2.38,M*4B
$IIMWV,326,R,5.73,N,A*15
$IIRMB,A,0.00,R,,NOODB,4149.00,N,08731.00,W,3.33,131,6.70,V,D*17
$IIRMC,140558.00,A,4151.19,N,08734.35,W,6.70,132,,003,W,D*1F
$IIVHW,125,T,128,M,6.90,N,12.77,K*64
$IIVLW,2862.80,N,2862.80,N*4D
$IIVTG,132,T,135,M,6.74,N,12.49,K,D*0D
$IIDPT,9.50,,*7E
$IIGGA,140600.00,4151.19,N,08734.35,W,2,12,0.80,,M,,M,,*65
$IIGLL,4151.19,N,08734.35,W,140600.00,A,D*6D
$IIHDG,128,,,003,W*38
$IIHDM,128,M*37
$IIHDT,125,T*3A
$IIMTW,24.55,C*25
$IIMWD,356,T,000,M,5.71,N,2.94,M*48
$IIMWV,231,T,5.71,N,A*16
$IIRMB,A,0.00,R,,NOODB,4149.00,N,08731.00,W,3.33,131,7.09,V,D*18
$IIRMC,140602.00,A,4151.19,N,08734.35,W,7.19,124,,003,W,D*1A
$IIVHW,125,T,128,M,6.86,N,12.70,K*64
$IIVLW,2862.80,N,2862.80,N*4D
$IIVTG,124,T,128,M,7.19,N,13.31,K,D*02
$IIDPT,9.50,,*7E
$IIGGA,140604.00,4151.19,N,08734.34,W,2,12,0.80,,M,,M,,*60
$IIGLL,4151.19,N,08734.34,W,140604.00,A,D*68
$IIHDG,127,,,003,W*37
$IIHDM,127,M*38
$IIHDT,124,T*3B
$IIMTW,24.46,C*27
$IIMWD,354,T,357,M,4.68,N,2.41,M*4A
$IIMWV,325,R,6.33,N,A*11
$IIRMB,A,0.00,R,,NOODB,4149.00,N,08731.00,W,3.32,131,6.90,V,D*18
$IIRMC,140604.00,A,4151.19,N,08734.34,W,6.80,132,,003,W,D*1B
$IIVHW,124,T,127,M,6.86,N,12.70,K*6A
$IIVLW,2862.81,N,2862.81,N*4D
$IIVTG,132,T,135,M,6.74,N,12.49,K,D*0D
$IIDPT,9.39,,*71
$IIGGA,140606.00,4151.18,N,08734.34,W,2,12,0.80,,M,,M,,*63
$IIGLL,4151.18,N,08734.34,W,140606.00,A,D*6B
$IIHDG,127,,,003,W*37
$IIHDM,127,M*38
$IIHDT,124,T*3B
$IIMTW,24.98,C*24
$IIMWD,000,T,003,M,4.66,N,2.40,M*45
$IIMWV,236,T,4.66,N,A*16
$IIRMB,A,0.00,R,,NOODB,4149.00,N,08731.00,W,3.31,131,6.90,V,D*1B
$IIRMC,140608.00,A,4151.18,N,08734.33,W,7.40,131,,003,W,D*1F
$IIVHW,124,T,127,M,6.84,N,12.67,K*6E
$IIVLW,2862.82,N,2862.82,N*4D
$IIVTG,131,T,134,M,7.40,N,13.71,K,D*03
$IIDPT,9.60,,*7D
$IIGGA,140610.00,4151.18,N,08734.33,W,2,12,0.80,,M,,M,,*63
$IIGLL,4151.18,N,08734.33,W,140610.00,A,D*6B
$IIHDG,129,,,003,W*39
$IIHDM,129,M*36
$IIHDT,125,T*3A
$IIMTW,24.98,C*24
$IIMWD,009,T,012,M,4.85,N,2.50,M*40
$IIMWV,320,R,6.70,N,A*13
$IIRMB,A,0.00,R,,NOODB,4149.00,N,08731.00,W,3.31,131,7.09,V,D*1A
$IIRMC,140610.00,A,4151.18,N,08734.33,W,6.90,124,,003,W,D*1E
$IIVHW,125,T,128,M,6.70,N,12.42,K*6C
$IIVLW,2862.82,N,2862.82,N*4D
$IIVTG,124,T,127,M,6.86,N,12.70,K,D*0E
$IIDPT,9.50,,*7E
$IIGGA,140612.00,4151.18,N,08734.33,W,2,12,0.80,,M,,M,,*61
$IIGLL,4151.18,N,08734.33,W,140612.00,A,D*69
$IIHDG,128,,,003,W*38
$IIHDM,128,M*37
$IIHDT,124,T*3B
$IIMTW,24.55,C*25
$IIMWD,000,T,003,M,4.95,N,2.54,M*4C
$IIMWV,235,T,4.95,N,A*19
$IIRMB,A,0.00,R,,NOODB,4149.00,N,08731.00,W,3.30,131,6.49,V,D*1E
$IIRMC,140614.00,A,4151.17,N,08734.32,W,7.19,135,,003,W,D*14
$IIVHW,124,T,128,M,6.70,N,12.42,K*6D
$IIVLW,2862.83,N,2862.83,N*4D
$IIVTG,135,T,138,M,7.19,N,13.31,K,D*03
$IIDPT,9.50,,*7E
$IIGGA,140616.00,4151.17,N,08734.32,W,2,12,0.80,,M,,M,,*6B
$IIGLL,4151.17,N,08734.32,W,140616.00,A,D*63
$IIHDG,128,,,003,W*38
$IIHDM,128,M*37
$IIHDT,124,T*3B
$IIMTW,24.55,C*25
$IIMWD,003,T,006,M,4.74,N,2.44,M*44
$IIMWV,320,R,6.29,N,A*1F
$IIRMB,A,0.00,R,,NOODB,4149.00,N,08731.00,W,3.29,131,6.99,V,D*1B
$IIRMC,140616.00,A,4151.17,N,08734.32,W,6.90,126,,003,W,D*14
$IIVHW,124,T,128,M,6.70,N,12.42,K*6D
$IIVLW,2862.83,N,2862.83,N*4D
$IIVTG,126,T,129,M,6.95,N,12.88,K,D*07
$IIDPT,9.50,,*7E
$IIGGA,140618.00,4151.17,N,08734.32,W,2,12,0.80,,M,,M,,*65
$IIGLL,4151.17,N,08734.32,W,140618.00,A,D*6D
$IIHDG,128,,,003,W*38
$IIHDM,128,M*37
$IIHDT,124,T*3B
$IIMTW,24.64,C*27
$IIMWD,003,T,006,M,4.87,N,2.51,M*4C
$IIMWV,238,T,4.87,N,A*17
$IIRMB,A,0.00,R,,NOODB,4149.00,N,08731.00,W,3.29,131,6.90,V,D*12
$IIRMC,140620.00,A,4151.17,N,08734.31,W,7.19,129,,003,W,D*1D
$IIVHW,124,T,128,M,6.74,N,12.49,K*62
$IIVLW,2862.84,N,2862.84,N*4D
$IIVTG,129,T,132,M,7.19,N,13.31,K,D*04
$IIDPT,9.50,,*7E
$IIGGA,140622.00,4151.16,N,08734.31,W,2,12,0.80,,M,,M,,*6E
$IIGLL,4151.16,N,08734.31,W,140622.00,A,D*66
$IIHDG,128,,,003,W*38
$IIHDM,128,M*37
$IIHDT,125,T*3A
$IIMTW,24.64,C*27
$IIMWD,007,T,010,M,4.62,N,2.38,M*4B
$IIMWV,320,R,6.39,N,A*1E
$IIRMB,A,0.00,R,,NOODB,4149.00,N,08731.00,W,3.28,131,6.99,V,D*1A
$IIRMC,140622.00,A,4151.16,N,08734.31,W,6.70,125,,003,W,D*1C
$IIVHW,125,T,128,M,6.76,N,12.52,K*6B
$IIVLW,2862.84,N,2862.84,N*4D
$IIVTG,125,T,128,M,6.68,N,12.38,K,D*0C
$IIDPT,9.50,,*7E
$IIGGA,140624.00,4151.16,N,08734.30,W,2,12,0.80,,M,,M,,*69
$IIGLL,4151.16,N,08734.30,W,140624.00,A,D*61
$IIHDG,128,,,003,W*38
$IIHDM,128,M*37
$IIHDT,124,T*3B
$IIMTW,24.55,C*25
$IIMWD,001,T,004,M,4.85,N,2.50,M*4F
$IIMWV,236,T,4.85,N,A*1B
$IIRMB,A,0.00,R,,NOODB,4149.00,N,08731.00,W,3.28,131,6.60,V,D*1C
$IIRMC,140624.00,A,4151.16,N,08734.30,W,6.92,135,,003,W,D*16
$IIVHW,124,T,128,M,6.93,N,12.85,K*6B
$IIVLW,2862.85,N,2862.85,N*4D
$IIVTG,132,T,135,M,7.69,N,14.25,K,D*0C
$IIDPT,9.50,,*7E
$IIGGA,140628.00,4151.16,N,08734.29,W,2,12,0.80,,M,,M,,*6D
$IIGLL,4151.16,N,08734.29,W,140628.00,A,D*65
$IIHDG,128,,,003,W*38
$IIHDM,128,M*37
$IIHDT,125,T*3A
$IIMTW,24.55,C*25
$IIMWD,005,T,008,M,5.30,N,2.73,M*49
$IIMWV,320,R,6.60,N,A*12
$IIRMB,A,0.00,R,,NOODB,4149.00,N,08731.00,W,3.27,131,7.60,V,D*12
$IIRMC,140628.00,A,4151.16,N,08734.29,W,7.09,129,,003,W,D*1C
$IIVHW,124,T,127,M,6.88,N,12.74,K*60
$IIVLW,2862.86,N,2862.86,N*4D
$IIVTG,129,T,133,M,7.07,N,13.10,K,D*09
$IIDPT,9.60,,*7D
$IIGGA,140630.00,4151.15,N,08734.29,W,2,12,0.80,,M,,M,,*67
$IIGLL,4151.15,N,08734.29,W,140630.00,A,D*6F
$IIHDG,127,,,003,W*37
$IIHDM,127,M*38
$IIHDT,124,T*3B
$IIMTW,24.55,C*25
$IIMWD,355,T,358,M,5.22,N,2.69,M*41
$IIMWV,230,T,5.22,N,A*11
$IIRMB,A,0.00,R,,NOODB,4149.00,N,08731.00,W,3.27,131,6.80,V,D*1D
$IIRMC,140630.00,A,4151.15,N,08734.29,W,6.95,133,,003,W,D*19
$IIVHW,124,T,127,M,6.88,N,12.74,K*60
$IIVLW,2862.86,N,2862.86,N*4D
$IIVTG,126,T,129,M,7.30,N,13.53,K,D*0E
$IIDPT,9.60,,*7D
$IIGGA,140634.00,4151.15,N,08734.28,W,2,12,0.80,,M,,M,,*62
$IIGLL,4151.15,N,08734.28,W,140634.00,A,D*6A
$IIHDG,127,,,003,W*37
$IIHDM,127,M*38
$IIHDT,124,T*3B
$IIMTW,24.55,C*25
$IIMWD,358,T,001,M,5.17,N,2.66,M*4A
$IIMWV,316,R,6.33,N,A*11
$IIRMB,A,0.00,R,,NOODB,4149.00,N,08731.00,W,3.26,131,7.19,V,D*1D
$IIRMC,140634.00,A,4151.15,N,08734.28,W,7.30,133,,003,W,D*12
$IIVHW,123,T,126,M,6.88,N,12.74,K*66
$IIVLW,2862.87,N,2862.87,N*4D
$IIVTG,133,T,136,M,7.34,N,13.60,K,D*00
$IIDPT,9.60,,*7D
$IIGGA,140636.00,4151.14,N,08734.28,W,2,12,0.80,,M,,M,,*61
$IIGLL,4151.14,N,08734.28,W,140636.00,A,D*69
$IIHDG,126,,,003,W*36
$IIHDM,126,M*39
$IIHDT,122,T*3D
$IIMTW,24.64,C*27
$IIMWD,343,T,347,M,4.80,N,2.47,M*4D
$IIMWV,221,T,5.03,N,A*12
$IIRMB,A,0.00,R,,NOODB,4149.00,N,08731.00,W,3.26,131,7.09,V,D*1C
$IIRMC,140636.00,A,4151.14,N,08734.28,W,7.01,126,,003,W,D*17
$IIVHW,122,T,125,M,6.93,N,12.85,K*60
$IIVLW,2862.87,N,2862.87,N*4D
$IIVTG,133,T,136,M,7.40,N,13.71,K,D*03
$IIDPT,9.60,,*7D
$IIGGA,140640.00,4151.14,N,08734.27,W,2,12,0.80,,M,,M,,*6F
$IIGLL,4151.14,N,08734.27,W,140640.00,A,D*67
$IIHDG,125,,,003,W*35
$IIHDM,125,M*3A
$IIHDT,122,T*3D
$IIMTW,24.64,C*27
$IIMWD,354,T,357,M,5.13,N,2.64,M*40
$IIMWV,320,R,6.39,N,A*1E
$IIRMB,A,0.00,R,,NOODB,4149.00,N,08731.00,W,3.25,131,7.19,V,D*1E
$IIRMC,140640.00,A,4151.14,N,08734.27,W,6.99,120,,003,W,D*1F
$IIVHW,122,T,125,M,6.92,N,12.81,K*65
$IIVLW,2862.88,N,2862.88,N*4D
$IIVTG,120,T,123,M,7.01,N,12.99,K,D*07
$IIDPT,9.50,,*7E
$IIGGA,140642.00,4151.14,N,08734.27,W,2,12,0.80,,M,,M,,*6D
$IIGLL,4151.14,N,08734.27,W,140642.00,A,D*65
$IIHDG,124,,,003,W*34
$IIHDM,124,M*3B
$IIHDT,121,T*3E
$IIMTW,24.64,C*27
$IIMWD,342,T,345,M,4.47,N,2.29,M*4D
$IIMWV,220,T,4.47,N,A*12
$IIRMB,A,0.00,R,,NOODB,4149.00,N,08731.00,W,3.24,131,6.80,V,D*1E
$IIRMC,140642.00,A,4151.14,N,08734.27,W,6.92,125,,003,W,D*13
$IIVHW,121,T,124,M,7.07,N,13.10,K*63
$IIVLW,2862.88,N,2862.88,N*4D
$IIVTG,132,T,135¬M,7.60,N,14.07,K,D*05
$IIDPT,9.60,,*7D
$IIGGA,140646.00,4151.13,N,08734.26,W,2,12,0.80,,M,,M,,*6F
$IIGLL,4151.13,N,08734.26,W,140646.00,A,D*67
$IIHDG,124,,,003,W*34
$IIHDM,124,M*3B
$IIHDT,121,T*3E
$IIMTW,24.55,C*25
$IIMWD,355,T,358,M,5.46,N,2.80,M*44
$IIMWV,320,R,6.88,N,A*14
$IIRMB,A,0.00,R,,NOODB,4149.00,N,08731.00,W,3.24,131,7.60,V,D*11
$IIRMC,140646.00,A,4151.13,N,08734.26,W,7.19,117,,003,W,D*12
$IIVHW,121,T,124,M,7.07,N,13.10,K*63
$IIVLW,2862.89,N,2862.89,N*4D
$IIVTG,117,T,120,M,7.19,N,13.31,K,D*0A
$IIDPT,9.60,,*7D
$IIGGA,140648.00,4151.13,N,08734.25,W,2,12,0.80,,M,,M,,*62
$IIGLL,4151.13,N,08734.25,W,140648.00,A,D*6A
$IIHDG,123,,,003,W*33
$IIHDM,123,M*3C
$IIHDT,119,T*35
$IIMTW,24.55,C*25
$IIMWD,351,T,354,M,4.68,N,2.41,M*4C
$IIMWV,231,T,4.68,N,A*1F
$IIRMB,A,0.00,R,,NOODB,4149.00,N,08731.00,W,3.23,131,6.70,V,D*16
$IIRMC,140648.00,A,4151.13,N,08734.25,W,6.92,125,,003,W,D*1C
$IIVHW,119,T,123,M,7.21,N,13.35,K*6C
$IIVLW,2862.90,N,2862.90,N*4D
$IIVTG,129,T,132,M,7.79,N,14.43,K,D*00
$IIDPT,9.80,,*73
$IIGGA,140652.00,4151.13,N,08734.24,W,2,12,0.80,,M,,M,,*68
$IIGLL,4151.13,N,08734.24,W,140652.00,A,D*60
$IIHDG,123,,,003,W*33
$IIHDM,123,M*3C
$IIHDT,120,T*3F
$IIMTW,24.64,C*27
$IIMWD,359,T,002,M,4.91,N,2.52,M*40
$IIMWV,325,R,7.23,N,A*11
$IIRMB,A,0.00,R,,NOODB,4149.00,N,08731.00,W,3.22,131,7.40,V,D*15
$IIRMC,140652.00,A,4151.13,N,08734.24,W,7.09,116,,003,W,D*15
$IIVHW,119,T,123,M,7.11,N,13.17,K*6F
$IIVLW,2862.90,N,2862.90,N*4D
$IIVTG,116,T,119,M,7.09,N,13.14,K,D*07
$IIDPT,9.60,,*7D
$IIGGA,140654.00,4151.12,N,08734.24,W,2,12,0.80,,M,,M,,*6F
$IIGLL,4151.12,N,08734.24,W,140654.00,A,D*67
$IIHDG,121,,,003,W*31
$IIHDM,121,M*3E
$IIHDT,118,T*34
$IIMTW,24.64,C*27
$IIMWD,357,T,000,M,5.07,N,2.60,M*43
$IIMWV,238,T,5.07,N,A*1E
$IIRMB,A,0.00,R,,NOODB,4149.00,N,08731.00,W,3.22,131,6.70,V,D*17
$IIRMC,140654.00,A,4151.12,N,08734.24,W,6.86,127,,003,W,D*16
$IIVHW,118,T,121,M,7.13,N,13.21,K*6B
$IIVLW,2862.91,N,2862.91,N*4D
$IIVTG,123,T,126,M,7.40,N,13.71,K,D*03
$IIDPT,9.60,,*7D
$IIGGA,140658.00,4151.12,N,08734.23,W,2,12,0.80,,M,,M,,*64
$IIGLL,4151.12,N,08734.23,W,140658.00,A,D*6C
$IIHDG,122,,,003,W*32
$IIHDM,122,M*3D
$IIHDT,118,T*34
$IIMTW,24.64,C*27
$IIMWD,003,T,006,M,5.48,N,2.81,M*43
$IIMWV,318,R,7.34,N,A*19
$IIRMB,A,0.00,R,,NOODB,4149.00,N,08731.00,W,3.21,131,7.19,V,D*1A
$IIRMC,140658.00,A,4151.12,N,08734.23,W,7.09,118,,003,W,D*17
$IIVHW,118,T,122,M,7.11,N,13.17,K*6F
$IIVLW,2862.91,N,2862.91,N*4D
$IIVTG,118,T,121,M,7.09,N,13.14,K,D*02
$IIDPT,9.60,,*7D
$IIGGA,140700.00,4151.12,N,08734.23,W,2,12,0.80,,M,,M,,*68
$IIGLL,4151.12,N,08734.23,W,140700.00,A,D*60
$IIHDG,122,,,003,W*32
$IIHDM,122,M*3D
$IIHDT,119,T*35
$IIMTW,24.72,C*20
$IIMWD,001,T,004,M,5.15,N,2.65,M*41
$IIMWV,242,T,5.15,N,A*10
$IIRMB,A,0.00,R,,NOODB,4149.00,N,08731.00,W,3.21,131,6.99,V,D*13
$IIRMC,140700.00,A,4151.12,N,08734.23,W,6.95,119,,003,W,D*1E
$IIVHW,119,T,122,M,7.17,N,13.28,K*64
$IIVLW,2862.92,N,2862.92,N*4D
$IIVTG,128,T,132,M,7.40,N,13.71,K,D*0D
$IIDPT,9.60,,*7D
$IIGGA,140704.00,4151.11,N,08734.22,W,2,12,0.80,,M,,M,,*6E
$IIGLL,4151.11,N,08734.22,W,140704.00,A,D*66
$IIHDG,123,,,003,W*33
$IIHDM,123,M*3C
$IIHDT,120,T*3F
$IIMTW,24.72,C*20
$IIMWD,003,T,006,M,5.73,N,2.95,M*4E
$IIMWV,314,R,7.17,N,A*14
$IIRMB,A,0.00,R,,NOODB,4149.00,N,08731.00,W,3.20,131,7.40,V,D*17
$IIRMC,140704.00,A,4151.11,N,08734.22,W,7.40,120,,003,W,D*1B
$IIVHW,121,T,124,M,7.15,N,13.24,K*67
$IIVLW,2862.93,N,2862.93,N*4D
$IIVTG,120,T,123,M,7.40,N,13.71,K,D*05
$IIDPT,9.60,,*7D
$IIGGA,140706.00,4151.11,N,08734.21,W,2,12,0.80,,M,,M,,*6F
$IIGLL,4151.11,N,08734.21,W,140706.00,A,D*67
$IIHDG,125,,,003,W*35
$IIHDM,125,M*3A
$IIHDT,122,T*3D
$IIMTW,24.81,C*2C
$IIMWD,004,T,008,M,5.13,N,2.64,M*4F
$IIMWV,242,T,5.13,N,A*16
$IIRMB,A,0.00,R,,NOODB,4149.00,N,08731.00,W,3.20,131,6.99,V,D*12
$IIRMC,140706.00,A,4151.11,N,08734.21,W,7.28,122,,003,W,D*16
$IIVHW,122,T,125,M,7.05,N,13.06,K*64
$IIVLW,2862.93,N,2862.93,N*4D
$IIVTG,122,T,125,M,7.28,N,13.50,K,D*0C
$IIDPT,9.50,,*7E
$IIGGA,140710.00,4151.11,N,08734.20,W,2,12,0.80,,M,,M,,*69
$IIGLL,4151.11,N,08734.20,W,140710.00,A,D*61
$IIHDG,126,,,003,W*36
$IIHDM,126,M*39
$IIHDT,122,T*3D
$IIMTW,24.81,C*2C
$IIMWD,003,T,007,M,5.46,N,2.80,M*4D
$IIMWV,314,R,6.76,N,A*12
$IIRMB,A,0.00,R,,NOODB,4149.00,N,08731.00,W,3.19,131,6.99,V,D*18
$IIRMC,140710.00,A,4151.11,N,08734.20,W,7.19,128,,003,W,D*18
$IIVHW,123,T,126,M,7.15,N,13.24,K*67
$IIVLW,2862.94,N,2862.94,N*4D
$IIVTG,128,T,131,M,7.19,N,13.31,K,D*06
$IIDPT,9.60,,*7D
$IIGGA,140712.00,4151.10,N,08734.20,W,2,12,0.80,,M,,M,,*6A
$IIGLL,4151.10,N,08734.20,W,140712.00,A,D*62
$IIHDG,127,,,003,W*37
$IIHDM,127,M*38
$IIHDT,124,T*3B
$IIMTW,24.64,C*27
$IIMWD,003,T,006,M,5.42,N,2.79,M*4E
$IIMWV,239,T,5.42,N,A*1E
$IIRMB,A,0.00,R,,NOODB,4149.00,N,08731.00,W,3.18,131,7.40,V,D*1C
$IIRMC,140712.00,A,4151.10,N,08734.20,W,7.61,129,,003,W,D*15
$IIVHW,124,T,127,M,7.07,N,13.10,K*65
$IIVLW,2862.94,N,2862.94,N*4D
$IIVTG,129,T,132,M,7.61,N,14.11,K,D*0E
$IIDPT,9.50,,*7E
$IIGGA,140716.00,4151.10,N,08734.19,W,2,12,0.80,,M,,M,,*64
$IIGLL,4151.10,N,08734.19,W,140716.00,A,D*6C
$IIHDG,129,,,003,W*39
$IIHDM,129,M*36
$IIHDT,125,T*3A
$IIMTW,24.64,C*27
$IIMWD,003,T,006,M,5.53,N,2.84,M*4C
$IIMWV,311,R,6.29,N,A*1D
$IIRMB,A,0.00,R,,NOODB,4149.00,N,08731.00,W,3.18,131,6.99,V,D*19
$IIRMC,140716.00,A,4151.10,N,08734.19,W,7.09,132,,003,W,D*1F
$IIVHW,125,T,129,M,7.07,N,13.10,K*6A
$IIVLW,2862.95,N,2862.95,N*4D
$IIVTG,132,T,135,M,7.09,N,13.14,K,D*0F
$IIDPT,9.69,,*74
$IIGGA,140718.00,4151.10,N,08734.19,W,2,12,0.80,,M,,M,,*6A
$IIGLL,4151.10,N,08734.19,W,140718.00,A,D*62
$IIHDG,130,,,003,W*31
$IIHDM,130,M*3E
$IIHDT,127,T*38
$IIMTW,24.81,C*2C
$IIMWD,355,T,358,M,5.13,N,2.64,M*4E
$IIMWV,227,T,5.13,N,A*15
$IIRMB,A,0.00,R,,NOODB,4149.00,N,08731.00,W,3.17,131,7.30,V,D*14
$IIRMC,140718.00,A,4151.10,N,08734.19,W,7.34,131,,003,W,D*1C
$IIVHW,127,T,130,M,7.09,N,13.14,K*6A
$IIVLW,2862.96,N,2862.96,N*4D
$IIVTG,131,T,134,M,7.34,N,13.60,K,D*00
$IIDPT,9.69,,*74
$IIGGA,140720.00,4151.09,N,08734.18,W,2,12,0.80,,M,,M,,*68
$IIGLL,4151.09,N,08734.18,W,140722.00,A,D*62
$IIHDG,132,,,003,W*33
$IIHDM,132,M*3C
$IIHDT,128,T*37
$IIMTW,24.72,C*20
$IIMWD,001,T,004,M,6.00,N,3.08,M*4C
$IIMWV,311,R,6.64,N,A*14
$IIRMB,A,0.00,R,,NOODB,4149.00,N,08731.00,W,3.16,131,7.19,V,D*1E
$IIRMC,140722.00,A,4151.09,N,08734.18,W,7.40,133,,003,W,D*1D
$IIVHW,129,T,132,M,7.07,N,13.10,K*6C
$IIVLW,2862.96,N,2862.96,N*4D
$IIVTG,133,T,136,M,7.40,N,13.71,K,D*03
$IIDPT,9.50,,*7E
$IIGGA,140724.00,4151.09,N,08734.18,W,2,12,0.80,,M,,M,,*6C
$IIGLL,4151.09,N,08734.18,W,140724.00,A,D*64
$IIHDG,133,,,003,W*32
$IIHDM,133,M*3D
$IIHDT,130,T*3E
$IIMTW,24.72,C*20
$IIMWD,359,T,002,M,5.36,N,2.76,M*4A
$IIMWV,228,T,5.36,N,A*1D
$IIRMB,A,0.00,R,,NOODB,4149.00,N,08731.00,W,3.16,131,7.30,V,D*15
$IIRMC,140724.00,A,4151.09,N,08734.18,W,7.01,137,,003,W,D*1A
$IIVHW,130,T,133,M,7.05,N,13.06,K*60
$IIVLW,2862.97,N,2862.97,N*4D
$IIVTG,137,T,140,M,7.01,N,12.99,K,D*04
$IIDPT,9.30,,*78
$IIGGA,140726.00,4151.08,N,08734.17,W,2,12,0.80,,M,,M,,*60
$IIGLL,4151.08,N,08734.17,W,140728.00,A,D*66
$IIHDG,132,,,003,W*33
$IIHDM,132,M*3C
$IIHDT,129,T*36
$IIMTW,24.81,C*2C
$IIMWD,356,T,359,M,5.11,N,2.63,M*49
$IIMWV,318,R,5.87,N,A*13
$IIRMB,A,0.00,R,,NOODB,4149.00,N,08731.00,W,3.15,131,7.09,V,D*1C
$IIRMC,140728.00,A,4151.08,N,08734.17,W,7.69,140,,003,W,D*16
$IIVHW,128,T,132,M,7.32,N,13.57,K*68
$IIVLW,2862.97,N,2862.97,N*4D
$IIVTG,140,T,143,M,7.69,N,14.25,K,D*08
$IIDPT,9.80,,*73
$IIGGA,140730.00,4151.08,N,08734.16,W,2,12,0.80,,M,,M,,*66
$IIGLL,4151.08,N,08734.16,W,140730.00,A,D*6E
$IIHDG,132,,,003,W*33
$IIHDM,132,M*3C
$IIHDT,129,T*36
$IIMTW,24.81,C*2C
$IIMWD,002,T,006,M,6.04,N,3.10,M*40
$IIMWV,233,T,6.04,N,A*15
$IIRMB,A,0.00,R,,NOODB,4149.00,N,08731.00,W,3.15,131,8.20,V,D*18
$IIRMC,140730.00,A,4151.08,N,08734.16,W,8.20,138,,003,W,D*13
$IIVHW,129,T,132,M,7.15,N,13.24,K*68
$IIVLW,2862.98,N,2862.98,N*4D
$IIVTG,138,T,141,M,8.20,N,15.19,K,D*09
$IIDPT,9.60,,*7D
$IIGGA,140732.00,4151.07,N,08734.16,W,2,12,0.80,,M,,M,,*6B
$IIGLL,4151.07,N,08734.16,W,140734.00,A,D*65
$IIHDG,132,,,003,W*33
$IIHDM,132,M*3C
$IIHDT,129,T*36
$IIMTW,24.64,C*27
$IIMWD,357,T,000,M,5.22,N,2.69,M*4D
$IIMWV,316,R,5.90,N,A*1B
$IIRMB,A,0.00,R,,NOODB,4149.00,N,08731.00,W,3.14,131,6.60,V,D*13
$IIRMC,140734.00,A,4151.07,N,08734.16,W,6.90,139,,003,W,D*1C
$IIVHW,129,T,132,M,7.19,N,13.31,K*60
$IIVLW,2862.99,N,2862.99,N*4D
$IIVTG,139,T,143,M,6.90,N,12.77,K,D*00
$IIDPT,9.69,,*74
$IIGGA,140736.00,4151.07,N,08734.16,W,2,12,0.80,,M,,M,,*6F
$IIGLL,4151.07,N,08734.16,W,140736.00,A,D*67
$IIHDG,132,,,003,W*33
$IIHDM,132,M*3C
$IIHDT,129,T*36
$IIMTW,24.64,C*27
$IIMWD,000,T,003,M,5.48,N,2.81,M*45
$IIMWV,231,T,5.48,N,A*1C
$IIRMB,A,0.00,R,,NOODB,4149.00,N,08731.00,W,3.13,131,7.40,V,D*17
$IIRMC,140736.00,A,4151.07,N,08734.16,W,7.71,137,,003,W,D*1E
$IIVHW,129,T,132,M,7.15,N,13.24,K*68
$IIVLW,2862.99,N,2862.99,N*4D
$IIVTG,137,T,140,M,7.71,N,14.29,K,D*0E
$IIDPT,9.60,,*7D
$IIGGA,140738.00,4151.07,N,08734.15,W,2,12,0.80,,M,,M,,*62
$IIGLL,4151.07,N,08734.15,W,140738.00,A,D*6A
$IIHDG,132,,,003,W*33
$IIHDM,132,M*3C
$IIHDT,128,T*37
$IIMTW,24.98,C*24
$IIMWD,351,T,354,M,5.17,N,2.66,M*40
$IIMWV,319,R,5.59,N,A*11
$IIRMB,A,0.00,R,,NOODB,4149.00,N,08731.00,W,3.13,131,6.99,V,D*12
$IIRMC,140740.00,A,4151.06,N,08734.15,W,7.30,136,,003,W,D*19
$IIVHW,128,T,132,M,7.17,N,13.28,K*67
$IIVLW,2863.00,N,2863.00,N*4D
$IIVTG,136,T,139,M,7.30,N,13.53,K,D*0E
$IIDPT,9.69,,*74
$IIGGA,140742.00,4151.06,N,08734.14,W,2,12,0.80,,M,,M,,*6F
$IIGLL,4151.06,N,08734.14,W,140742.00,A,D*67
$IIHDG,132,,,003,W*33
$IIHDM,132,M*3C
$IIHDT,129,T*36
$IIMTW,24.98,C*24
$IIMWD,001,T,004,M,6.14,N,3.16,M*46
$IIMWV,231,T,6.14,N,A*16
$IIRMB,A,0.00,R,,NOODB,4149.00,N,08731.00,W,3.12,131,7.50,V,D*17
$IIRMC,140742.00,A,4151.06,N,08734.14,W,7.61,136,,003,W,D*1E
$IIVHW,129,T,132,M,7.09,N,13.14,K*66
$IIVLW,2863.00,N,2863.00,N*4D
$IIVTG,136,T,139,M,7.61,N,14.11,K,D*0B
$IIDPT,9.60,,*7D
$IIGGA,140744.00,4151.06,N,08734.14,W,2,12,0.80,,M,,M,,*69
$IIGLL,4151.06,N,08734.14,W,140744.00,A,D*61
$IIHDG,133,,,003,W*32
$IIHDM,133,M*3D
$IIHDT,130,T*3E
$IIMTW,24.64,C*27
$IIMWD,356,T,000,M,5.46,N,2.80,M*49
$IIMWV,317,R,5.83,N,A*18
$IIRMB,A,0.00,R,,NOODB,4149.00,N,08731.00,W,3.12,131,6.99,V,D*13
$IIRMC,140746.00,A,4151.05,N,08734.14,W,6.99,140,,003,W,D*1E
$IIVHW,130,T,133,M,7.09,N,13.14,K*6F
$IIVLW,2863.01,N,2863.01,N*4D
$IIVTG,140,T,143,M,6.99,N,12.96,K,D*08
$IIDPT,9.39,,*71
$IIGGA,140748.00,4151.05,N,08734.13,W,2,12,0.80,,M,,M,,*61
$IIGLL,4151.05,N,08734.13,W,140748.00,A,D*69
$IIHDG,132,,,003,W*33
$IIHDM,132,M*3C
$IIHDT,128,T*37
$IIMTW,24.72,C*20
$IIMWD,353,T,356,M,5.46,N,2.80,M*4C
$IIMWV,224,T,5.46,N,A*16
$IIRMB,A,0.00,R,,NOODB,4149.00,N,08731.00,W,3.11,131,6.99,V,D*10
$IIRMC,140748.00,A,4151.05,N,08734.13,W,7.13,140,,003,W,D*14
$IIVHW,128,T,131,M,7.26,N,13.46,K*6E
$IIVLW,2863.02,N,2863.02,N*4D
$IIVTG,140,T,144,M,7.13,N,13.21,K,D*01
$IIDPT,9.69,,*74
$IIGGA,140750.00,4151.05,N,08734.13,W,2,12,0.80,,M,,M,,*68
$IIGLL,4151.05,N,08734.13,W,140750.00,A,D*60
$IIHDG,133,,,003,W*32
$IIHDM,133,M*3D
$IIHDT,130,T*3E
$IIMTW,24.72,C*20
$IIMWD,353,T,356,M,6.18,N,3.18,M*44
$IIMWV,314,R,7.03,N,A*11
$IIRMB,A,0.00,R,,NOODB,4149.00,N,08731.00,W,3.10,131,8.20,V,D*1D
$IIRMC,140752.00,A,4151.04,N,08734.12,W,7.60,125,,003,W,D*18
$IIVHW,130,T,133,M,7.17,N,13.28,K*6F
$IIVLW,2863.02,N,2863.02,N*4D
$IIVTG,125,T,128,M,7.60,N,14.07,K,D*0F
$IIDPT,9.60,,*7D
$IIGGA,140754.00,4151.04,N,08734.12,W,2,12,0.80,,M,,M,,*6C
$IIGLL,4151.04,N,08734.12,W,140754.00,A,D*64
$IIHDG,131,,,003,W*30
$IIHDM,131,M*3F
$IIHDT,128,T*37
$IIMTW,24.90,C*2C
$IIMWD,347,T,350,M,6.35,N,3.26,M*45
$IIMWV,218,T,6.35,N,A*1E
$IIRMB,A,0.00,R,,NOODB,4149.00,N,08731.00,W,3.10,131,6.99,V,D*11
$IIRMC,140754.00,A,4151.04,N,08734.12,W,6.86,145,,003,W,D*11
$IIVHW,128,T,131,M,6.97,N,12.92,K*6D
$IIVLW,2863.03,N,2863.03,N*4D
$IIVTG,145,T,148,M,6.86,N,12.70,K,D*00
$IIDPT,9.50,,*7E
$IIGGA,140756.00,4151.04,N,08734.12,W,2,12,0.80,,M,,M,,*6E
$IIGLL,4151.04,N,08734.12,W,140756.00,A,D*66
$IIHDG,130,,,003,W*31
$IIHDM,130,M*3E
$IIHDT,127,T*38
$IIMTW,24.90,C*2C
$IIMWD,338,T,341,M,5.79,N,2.98,M*42
$IIMWV,324,R,6.68,N,A*1E
$IIRMB,A,0.00,R,,NOODB,4149.00,N,08731.00,W,3.09,131,6.99,V,D*19
$IIRMC,140758.00,A,4151.04,N,08734.11,W,7.09,136,,003,W,D*1C
$IIVHW,127,T,130,M,6.92,N,12.81,K*64
$IIVLW,2863.03,N,2863.03,N*4D
$IIVTG,136,T,139,M,7.09,N,13.14,K,D*07
$IIDPT,9.50,,*7E
$IIGGA,140800.00,4151.03,N,08734.11,W,2,12,0.80,,M,,M,,*66
$IIGLL,4151.03,N,08734.11,W,140800.00,A,D*6E
$IIHDG,129,,,003,W*39
$IIHDM,129,M*36
$IIHDT,126,T*39
$IIMTW,24.90,C*2C
$IIMWD,350,T,353,M,6.45,N,3.31,M*41
$IIMWV,224,T,6.45,N,A*16
$IIRMB,A,0.00,R,,NOODB,4149.00,N,08731.00,W,3.09,131,7.30,V,D*1B
$IIRMC,140800.00,A,4151.03,N,08734.11,W,7.07,128,,003,W,D*18
$IIVHW,126,T,129,M,6.92,N,12.81,K*6D
$IIVLW,2863.04,N,2863.04,N*4D
$IIVTG,128,T,131,M,7.07,N,13.10,K,D*0A
$IIDPT,9.50,,*7E
$IIGGA,140802.00,4151.03,N,08734.11,W,2,12,0.80,,M,,M,,*64
$IIGLL,4151.03,N,08734.11,W,140802.00,A,D*6C
$IIHDG,128,,,003,W*38
$IIHDM,128,M*37
$IIHDT,125,T*3A
$IIMTW,24.90,C*2C
$IIMWD,349,T,353,M,6.04,N,3.10,M*4F
$IIMWV,315,R,6.70,N,A*15
$IIRMB,A,0.00,R,,NOODB,4149.00,N,08731.00,W,3.08,131,7.30,V,D*1A
$IIRMC,140804.00,A,4151.03,N,08734.10,W,7.60,132,,003,W,D*17
$IIVHW,125,T,128,M,6.92,N,12.81,K*6F
$IIVLW,2863.04,N,2863.04,N*4D
$IIVTG,132,T,135,M,7.60,N,14.07,K,D*05
$IIDPT,9.60,,*7D
$IIGGA,140806.00,4151.03,N,08734.10,W,2,12,0.80,,M,,M,,*61
$IIGLL,4151.03,N,08734.10,W,140806.00,A,D*69
$IIHDG,128,,,003,W*38
$IIHDM,128,M*37
$IIHDT,124,T*3B
$IIMTW,24.72,C*20
$IIMWD,357,T,000,M,5.92,N,3.04,M*4C
$IIMWV,231,T,5.92,N,A*1B
$IIRMB,A,0.00,R,,NOODB,4149.00,N,08731.00,W,3.08,131,7.19,V,D*11
$IIRMC,140806.00,A,4151.03,N,08734.10,W,7.07,128,,003,W,D*1F
$IIVHW,125,T,128,M,6.84,N,12.67,K*60
$IIVLW,2863.05,N,2863.05,N*4D
$IIVTG,128,T,131,M,7.07,N,13.10,K,D*0A
$IIDPT,9.50,,*7E
$IIGGA,140808.00,4151.02,N,08734.09,W,2,12,0.80,,M,,M,,*66
$IIGLL,4151.02,N,08734.09,W,140808.00,A,D*6E
$IIHDG,127,,,003,W*37
$IIHDM,127,M*38
$IIHDT,124,T*3B
$IIMTW,24.72,C*20
$IIMWD,356,T,359,M,5.92,N,3.04,M*42
$IIMWV,309,R,6.33,N,A*1F
$IIRMB,A,0.00,R,,NOODB,4149.00,N,08731.00,W,3.07,131,6.99,V,D*17
$IIRMC,140810.00,A,4151.02,N,08734.09,W,7.40,132,,003,W,D*19
$IIVHW,124,T,127,M,6.86,N,12.70,K*6A
$IIVLW,2863.06,N,2863.06,N*4D
$IIVTG,132,T,135,M,7.40,N,13.71,K,D*01
$IIDPT,9.39,,*71
$IIGGA,140812.00,4151.02,N,08734.08,W,2,12,0.80,,M,,M,,*6C
$IIGLL,4151.02,N,08734.08,W,140812.00,A,D*64
$IIHDG,127,,,003,W*37
$IIHDM,127,M*38
$IIHDT,124,T*3B
$IIMTW,24.64,C*27
$IIMWD,001,T,004,M,5.98,N,3.07,M*41
$IIMWV,236,T,5.98,N,A*16
$IIRMB,A,0.00,R,,NOODB,4149.00,N,08731.00,W,3.06,131,7.50,V,D*12
$IIRMC,140812.00,A,4151.02,N,08734.08,W,7.23,127,,003,W,D*1B
$IIVHW,124,T,127,M,6.78,N,12.56,K*6F
$IIVLW,2863.06,N,2863.06,N*4D
$IIVTG,127,T,130,M,7.23,N,13.39,K,D*09
$IIDPT,9.30,,*78
$IIGGA,140814.00,4151.02,N,08734.08,W,2,12,0.80,,M,,M,,*6A
$IIGLL,4151.02,N,08734.08,W,140814.00,A,D*62
$IIHDG,127,,,003,W*37
$IIHDM,127,M*38
$IIHDT,124,T*3B
$IIMTW,24.64,C*27
$IIMWD,359,T,002,M,5.81,N,2.99,M*47
$IIMWV,307,R,6.12,N,A*12
$IIRMB,A,0.00,R,,NOODB,4149.00,N,08731.00,W,3.06,131,6.80,V,D*1E
$IIRMC,140816.00,A,4151.01,N,08734.08,W,7.19,132,,003,W,D*11
$IIVHW,124,T,127,M,6.78,N,12.56,K*6F
$IIVLW,2863.07,N,2863.07,N*4D
$IIVTG,132,T,135,M,7.19,N,13.31,K,D*09
$IIDPT,9.30,,*78
$IIGGA,140818.00,4151.01,N,08734.07,W,2,12,0.80,,M,,M,,*6A
$IIGLL,4151.01,N,08734.07,W,140818.00,A,D*62
$IIHDG,128,,,003,W*38
$IIHDM,128,M*37
$IIHDT,125,T*3A
$IIMTW,24.64,C*27
$IIMWD,356,T,000,M,5.53,N,2.84,M*49
$IIMWV,231,T,5.53,N,A*16
$IIRMB,A,0.00,R,,NOODB,4149.00,N,08731.00,W,3.05,131,7.19,V,D*1C
$IIRMC,140818.00,A,4151.01,N,08734.07,W,6.80,129,,003,W,D*1B
$IIVHW,125,T,128,M,6.82,N,12.63,K*62
$IIVLW,2863.07,N,2863.07,N*4D
$IIVTG,129,T,132,M,6.80,N,12.60,K,D*00
$IIDPT,9.19,,*73
$IIGGA,140820.00,4151.01,N,08734.07,W,2,12,0.80,,M,,M,,*61
$IIGLL,4151.01,N,08734.07,W,140820.00,A,D*69
$IIHDG,128,,,003,W*38
$IIHDM,128,M*37
$IIHDT,125,T*3A
$IIMTW,24.72,C*20
$IIMWD,352,T,355,M,6.06,N,3.11,M*40
$IIMWV,307,R,6.51,N,A*15
$IIRMB,A,0.00,R,,NOODB,4149.00,N,08731.00,W,3.04,131,7.40,V,D*11
$IIRMC,140822.00,A,4151.01,N,08734.06,W,7.69,132,,003,W,D*1F
$IIVHW,125,T,128,M,6.95,N,12.88,K*61
$IIVLW,2863.08,N,2863.08,N*4D
$IIVTG,132,T,135,M,7.69,N,14.25,K,D*0C
$IIDPT,9.39,,*71
$IIGGA,140824.00,4151.00,N,08734.06,W,2,12,0.80,,M,,M,,*65
$IIGLL,4151.00,N,08734.06,W,140824.00,A,D*6D
$IIHDG,129,,,003,W*39
$IIHDM,129,M*36
$IIHDT,126,T*39
$IIMTW,24.72,C*20
$IIMWD,359,T,002,M,5.73,N,2.95,M*46
$IIMWV,233,T,5.73,N,A*16
$IIRMB,A,0.00,R,,NOODB,4149.00,N,08731.00,W,3.04,131,7.50,V,D*10
$IIRMC,140824.00,A,4151.00,N,08734.06,W,7.17,128,,003,W,D*1A
$IIVHW,126,T,129,M,6.86,N,12.70,K*66
$IIVLW,2863.08,N,2863.08,N*4D
$IIVTG,128,T,131,M,7.17,N,13.28,K,D*00
$IIDPT,9.50,,*7E
$IIGGA,140826.00,4151.00,N,08734.06,W,2,12,0.80,,M,,M,,*67
$IIGLL,4151.00,N,08734.06,W,140826.00,A,D*6F
$IIHDG,130,,,003,W*31
$IIHDM,130,M*3E
$IIHDT,127,T*38
$IIMTW,24.64,C*27
$IIMWD,002,T,005,M,5.98,N,3.07,M*43
$IIMWV,308,R,6.35,N,A*18
$IIRMB,A,0.00,R,,NOODB,4149.00,N,08731.00,W,3.03,131,6.99,V,D*13
$IIRMC,140828.00,A,4151.00,N,08734.05,W,7.19,135,,003,W,D*17
$IIVHW,127,T,131,M,6.90,N,12.77,K*6E
$IIVLW,2863.09,N,2863.09,N*4D
$IIVTG,135,T,138,M,7.19,N,13.31,K,D*03
$IIDPT,9.60,,*7D
$IIGGA,140830.00,4151.00,N,08734.05,W,2,12,0.80,,M,,M,,*63
$IIGLL,4151.00,N,08734.05,W,140830.00,A,D*6B
$IIHDG,133,,,003,W*32
$IIHDM,133,M*3D
$IIHDT,129,T*36
$IIMTW,24.64,C*27
$IIMWD,000,T,003,M,6.35,N,3.26,M*40
$IIMWV,230,T,6.35,N,A*14
$IIRMB,A,0.00,R,,NOODB,4149.00,N,08731.00,W,3.03,131,7.40,V,D*16
$IIRMC,140830.00,A,4151.00,N,08734.05,W,7.28,138,,003,W,D*11
$IIVHW,130,T,133,M,6.86,N,12.70,K*6A
$IIVLW,2863.09,N,2863.09,N*4D
$IIVTG,138,T,141,M,7.28,N,13.50,K,D*05
$IIDPT,9.50,,*7E
$IIGGA,140832.00,4150.99,N,08734.05,W,2,12,0.80,,M,,M,,*60
$IIGLL,4150.99,N,08734.05,W,140832.00,A,D*68
$IIHDG,136,,,003,W*37
$IIHDM,136,M*38
$IIHDT,133,T*3D
$IIMTW,24.72,C*20
$IIMWD,356,T,000,M,5.57,N,2.86,M*4F
$IIMWV,318,R,6.08,N,A*17
$IIRMB,A,0.00,R,,NOODB,4149.00,N,08731.00,W,3.02,131,6.60,V,D*14
$IIRMC,140834.00,A,4150.99,N,08734.04,W,6.60,142,,003,W,D*15
$IIVHW,133,T,136,M,6.80,N,12.60,K*6B
$IIVLW,2863.10,N,2863.10,N*4D
$IIVTG,142,T,145,M,6.60,N,12.23,K,D*04
$IIDPT,9.80,,*73
$IIGGA,140836.00,4150.99,N,08734.04,W,2,12,0.80,,M,,M,,*65
$IIGLL,4150.99,N,08734.04,W,140836.00,A,D*6D
$IIHDG,137,,,003,W*36
$IIHDM,137,M*39
$IIHDT,134,T*3A
$IIMTW,24.64,C*27
$IIMWD,358,T,001,M,6.35,N,3.26,M*4C
$IIMWV,224,T,6.35,N,A*11
$IIRMB,A,0.00,R,,NOODB,4149.00,N,08731.00,W,3.02,131,6.49,V,D*1F
$IIRMC,140836.00,A,4150.99,N,08734.04,W,7.40,150,,003,W,D*17
$IIVHW,134,T,137,M,6.76,N,12.52,K*65
$IIVLW,2863.11,N,2863.11,N*4D
$IIVTG,150,T,153,M,7.40,N,13.71,K,D*05
$IIDPT,9.69,,*74
$IIGGA,140838.00,4150.98,N,08734.04,W,2,12,0.80,,M,,M,,*6A
$IIGLL,4150.98,N,08734.04,W,140838.00,A,D*62
$IIHDG,138,,,003,W*39
$IIHDM,138,M*36
$IIHDT,135,T*3B
$IIMTW,24.64,C*27
$IIMWD,356,T,359,M,5.75,N,2.96,M*41
$IIMWV,311,R,5.53,N,A*13
$IIRMB,A,0.00,R,,NOODB,4149.00,N,08731.00,W,3.01,131,7.09,V,D*19
$IIRMC,140840.00,A,4150.98,N,08734.03,W,7.09,150,,003,W,D*1D
$IIVHW,134,T,137,M,6.74,N,12.49,K*6D
$IIVLW,2863.11,N,2863.11,N*4D
$IIVTG,150,T,154,M,7.09,N,13.14,K,D*0C
$IIDPT,9.69,,*74
$IIGGA,140842.00,4150.98,N,08734.03,W,2,12,0.90,,M,,M,,*61
$IIGLL,4150.98,N,08734.03,W,140842.00,A,D*68
$IIHDG,137,,,003,W*36
$IIHDM,137,M*39
$IIHDT,134,T*3A
$IIMTW,24.64,C*27
$IIMWD,357,T,000,M,5.75,N,2.96,M*4F
$IIMWV,223,T,5.75,N,A*11
$IIRMB,A,0.01,L,,NOODB,4149.00,N,08731.00,W,3.01,131,6.80,V,D*06
$IIRMC,140842.00,A,4150.98,N,08734.03,W,7.01,141,,003,W,D*17
$IIVHW,134,T,137,M,6.82,N,12.63,K*6C
$IIVLW,2863.12,N,2863.12,N*4D
$IIVTG,141,T,144,M,7.01,N,12.99,K,D*01
$IIDPT,9.69,,*74
$IIGGA,140844.00,4150.97,N,08734.03,W,2,12,0.90,,M,,M,,*68
